{
  "type": "FeatureCollection",
  "generator": "overpass-ide",
  "copyright": "The data included in this document is from www.openstreetmap.org. The data is made available under ODbL.",
  "timestamp": "2023-07-05T03:17:13Z",
  "features": [
    {
      "type": "Feature",
      "properties": {
        "@id": "way/37492677",
        "amenity": "school",
        "name": "Mundo Andino",
        "@geometry": "center"
      },
      "geometry": {
        "type": "Point",
        "coordinates": [
          -71.9080469,
          -13.5337068
        ]
      },
      "id": "way/37492677"
    },
    {
      "type": "Feature",
      "properties": {
        "@id": "way/37583225",
        "amenity": "school",
        "name": "Ausangate",
        "@geometry": "center"
      },
      "geometry": {
        "type": "Point",
        "coordinates": [
          -71.906341,
          -13.5231234
        ]
      },
      "id": "way/37583225"
    },
    {
      "type": "Feature",
      "properties": {
        "@id": "way/39439431",
        "addr:city": "Cusco",
        "addr:district": "Cusco",
        "addr:province": "Cusco",
        "addr:street": "Avenida Don Bosco",
        "amenity": "school",
        "ele": "3450",
        "ele:source": "https://www.openstreetmap.org/#map=20/-13.51274/-71.98119&layers=C",
        "isced:level": "1;2",
        "name": "Institución Educativa Salesiano",
        "note": "Ubicacion_web (local)",
        "ref": "0234963;0236687",
        "source": "minedu.gob.pe",
        "@geometry": "center"
      },
      "geometry": {
        "type": "Point",
        "coordinates": [
          -71.9814959,
          -13.5127555
        ]
      },
      "id": "way/39439431"
    },
    {
      "type": "Feature",
      "properties": {
        "@id": "way/83108845",
        "addr:district": "Machupicchu",
        "addr:full": "Plaza Manco Cápac",
        "addr:province": "Urubamba",
        "amenity": "school",
        "ele": "2050",
        "ele:source": "https://www.openstreetmap.org/relation/1923761#map=20/-13.15380/-72.52736&layers=C",
        "isced:level": "1",
        "name": "Institución Educativa 50622 San Juan Bautista de La Salle",
        "note": "Gps_otras_fuentes (local), antes 2112",
        "ref": "0410936",
        "source": "minedu.gob.pe",
        "@geometry": "center"
      },
      "geometry": {
        "type": "Point",
        "coordinates": [
          -72.5254547,
          -13.1545476
        ]
      },
      "id": "way/83108845"
    },
    {
      "type": "Feature",
      "properties": {
        "@id": "way/85617573",
        "amenity": "school",
        "name": "Colegio Fe y Alegría N° 20 Edificio Edubanco",
        "@geometry": "center"
      },
      "geometry": {
        "type": "Point",
        "coordinates": [
          -71.9818008,
          -13.5270129
        ]
      },
      "id": "way/85617573"
    },
    {
      "type": "Feature",
      "properties": {
        "@id": "way/85617578",
        "amenity": "school",
        "name": "Colegio Nacional Clorinda Matto de Turner",
        "@geometry": "center"
      },
      "geometry": {
        "type": "Point",
        "coordinates": [
          -71.969372,
          -13.5195451
        ]
      },
      "id": "way/85617578"
    },
    {
      "type": "Feature",
      "properties": {
        "@id": "way/85617582",
        "amenity": "school",
        "name": "Colegio Nacional Inca Garcilaso de la Vega",
        "@geometry": "center"
      },
      "geometry": {
        "type": "Point",
        "coordinates": [
          -71.9661172,
          -13.5205313
        ]
      },
      "id": "way/85617582"
    },
    {
      "type": "Feature",
      "properties": {
        "@id": "way/86381496",
        "amenity": "school",
        "name": "C.E.I. Santa Rosa",
        "@geometry": "center"
      },
      "geometry": {
        "type": "Point",
        "coordinates": [
          -71.9479324,
          -13.5281219
        ]
      },
      "id": "way/86381496"
    },
    {
      "type": "Feature",
      "properties": {
        "@id": "way/86545951",
        "amenity": "school",
        "name": "Fernando Tupac Amaru",
        "@geometry": "center"
      },
      "geometry": {
        "type": "Point",
        "coordinates": [
          -71.9086659,
          -13.5400166
        ]
      },
      "id": "way/86545951"
    },
    {
      "type": "Feature",
      "properties": {
        "@id": "way/86619318",
        "amenity": "school",
        "name": "La Inmaculada",
        "@geometry": "center"
      },
      "geometry": {
        "type": "Point",
        "coordinates": [
          -71.885238,
          -13.5485116
        ]
      },
      "id": "way/86619318"
    },
    {
      "type": "Feature",
      "properties": {
        "@id": "way/86619349",
        "amenity": "school",
        "name": "Instituto Superior Tecnológico Privado Antonio Raimondi",
        "@geometry": "center"
      },
      "geometry": {
        "type": "Point",
        "coordinates": [
          -71.9024853,
          -13.5391329
        ]
      },
      "id": "way/86619349"
    },
    {
      "type": "Feature",
      "properties": {
        "@id": "way/86700260",
        "amenity": "school",
        "name": "Uriel Garcia",
        "@geometry": "center"
      },
      "geometry": {
        "type": "Point",
        "coordinates": [
          -71.9577878,
          -13.5345378
        ]
      },
      "id": "way/86700260"
    },
    {
      "type": "Feature",
      "properties": {
        "@id": "way/166324981",
        "addr:district": "Espinar",
        "addr:province": "Espinar",
        "addr:street": "Jirón Cusco",
        "addr:subdistrict": "Yauri",
        "amenity": "school",
        "ele": "3925",
        "isced:level": "1;2",
        "name": "Institución Educativa 56175 Sagrado Corazón de Jesús",
        "ref": "0232694;0931436",
        "source": "minedu.gob.pe",
        "@geometry": "center"
      },
      "geometry": {
        "type": "Point",
        "coordinates": [
          -71.4093115,
          -14.7910592
        ]
      },
      "id": "way/166324981"
    },
    {
      "type": "Feature",
      "properties": {
        "@id": "way/166464301",
        "addr:district": "Espinar",
        "addr:housenumber": "803",
        "addr:province": "Espinar",
        "addr:street": "Avenida San Martín",
        "addr:subdistrict": "Yauri",
        "amenity": "school",
        "ele": "3925",
        "isced:level": "1;2",
        "name": "Institución Educativa Coronel Ladislao Espinar",
        "ref": "1393081;0236646",
        "source": "minedu.gob.pe",
        "@geometry": "center"
      },
      "geometry": {
        "type": "Point",
        "coordinates": [
          -71.4065457,
          -14.7893666
        ]
      },
      "id": "way/166464301"
    },
    {
      "type": "Feature",
      "properties": {
        "@id": "way/166464303",
        "amenity": "school",
        "name": "Colegio Sagrado Corazon de Jesus",
        "@geometry": "center"
      },
      "geometry": {
        "type": "Point",
        "coordinates": [
          -71.4090072,
          -14.786882
        ]
      },
      "id": "way/166464303"
    },
    {
      "type": "Feature",
      "properties": {
        "@id": "way/208623724",
        "amenity": "school",
        "@geometry": "center"
      },
      "geometry": {
        "type": "Point",
        "coordinates": [
          -72.1897113,
          -13.2849454
        ]
      },
      "id": "way/208623724"
    },
    {
      "type": "Feature",
      "properties": {
        "@id": "way/208631786",
        "amenity": "school",
        "@geometry": "center"
      },
      "geometry": {
        "type": "Point",
        "coordinates": [
          -72.1555786,
          -13.2841847
        ]
      },
      "id": "way/208631786"
    },
    {
      "type": "Feature",
      "properties": {
        "@id": "way/210821536",
        "addr:district": "Urubamba",
        "addr:full": "Yanahuara",
        "addr:province": "Urubamba",
        "addr:subdistrict": "Yanahuara",
        "amenity": "school",
        "ele": "2880",
        "fixme": "Ubicar el POI en el lugar que corresponde",
        "isced:level": "1",
        "name": "Institución Educativa No. 50574",
        "note": "Gps_otras_fuentes (local)",
        "ref": "0410464",
        "source": "minedu.gob.pe",
        "@geometry": "center"
      },
      "geometry": {
        "type": "Point",
        "coordinates": [
          -72.1709058,
          -13.2751091
        ]
      },
      "id": "way/210821536"
    },
    {
      "type": "Feature",
      "properties": {
        "@id": "way/210822223",
        "amenity": "school",
        "name": "Institución Educativa Arco Iris",
        "@geometry": "center"
      },
      "geometry": {
        "type": "Point",
        "coordinates": [
          -72.1144496,
          -13.3020129
        ]
      },
      "id": "way/210822223"
    },
    {
      "type": "Feature",
      "properties": {
        "@id": "way/222283136",
        "amenity": "school",
        "building": "yes",
        "name": "Serapio Calderon",
        "@geometry": "center"
      },
      "geometry": {
        "type": "Point",
        "coordinates": [
          -71.5962001,
          -13.3163823
        ]
      },
      "id": "way/222283136"
    },
    {
      "type": "Feature",
      "properties": {
        "@id": "way/225524897",
        "amenity": "school",
        "building": "yes",
        "@geometry": "center"
      },
      "geometry": {
        "type": "Point",
        "coordinates": [
          -71.5959146,
          -13.3183133
        ]
      },
      "id": "way/225524897"
    },
    {
      "type": "Feature",
      "properties": {
        "@id": "way/258720029",
        "amenity": "school",
        "name": "Augusto Salazar Bondy",
        "@geometry": "center"
      },
      "geometry": {
        "type": "Point",
        "coordinates": [
          -71.9466634,
          -13.5298448
        ]
      },
      "id": "way/258720029"
    },
    {
      "type": "Feature",
      "properties": {
        "@id": "way/258787208",
        "addr:district": "Wanchaq",
        "addr:housenumber": "204",
        "addr:province": "Cusco",
        "addr:street": "Avenida T.C. Gordon Magné",
        "addr:subdistrict": "Wanchaq",
        "alt_name": "Colegio Santa Ana",
        "amenity": "school",
        "ele": "3362",
        "isced:level": "1;2",
        "name": "Institución Educativa Santa Ana",
        "note": "Ubicacion_web_med (local)",
        "ref": "0235051;0236752",
        "source": "minedu.gob.pe",
        "@geometry": "center"
      },
      "geometry": {
        "type": "Point",
        "coordinates": [
          -71.9493566,
          -13.5290911
        ]
      },
      "id": "way/258787208"
    },
    {
      "type": "Feature",
      "properties": {
        "@id": "way/258788264",
        "addr:street": "Calle Daniel Arteaga",
        "amenity": "school",
        "name": "I.E. 51022 Diego Quispe Tito",
        "@geometry": "center"
      },
      "geometry": {
        "type": "Point",
        "coordinates": [
          -71.9395995,
          -13.5296639
        ]
      },
      "id": "way/258788264"
    },
    {
      "type": "Feature",
      "properties": {
        "@id": "way/259225024",
        "amenity": "school",
        "name": "Colegio Arturo Palomino",
        "@geometry": "center"
      },
      "geometry": {
        "type": "Point",
        "coordinates": [
          -71.952408,
          -13.532584
        ]
      },
      "id": "way/259225024"
    },
    {
      "type": "Feature",
      "properties": {
        "@id": "way/259226548",
        "amenity": "school",
        "name": "I.E.I. María Trinidad Enrriquez",
        "@geometry": "center"
      },
      "geometry": {
        "type": "Point",
        "coordinates": [
          -71.9566687,
          -13.5317768
        ]
      },
      "id": "way/259226548"
    },
    {
      "type": "Feature",
      "properties": {
        "@id": "way/259229764",
        "amenity": "school",
        "name": "Colegio Sagrado Corazón",
        "@geometry": "center"
      },
      "geometry": {
        "type": "Point",
        "coordinates": [
          -71.9600708,
          -13.5333852
        ]
      },
      "id": "way/259229764"
    },
    {
      "type": "Feature",
      "properties": {
        "@id": "way/259231502",
        "amenity": "school",
        "name": "I.E.P. Nuestra Señora de Fátima",
        "@geometry": "center"
      },
      "geometry": {
        "type": "Point",
        "coordinates": [
          -71.9596979,
          -13.5309181
        ]
      },
      "id": "way/259231502"
    },
    {
      "type": "Feature",
      "properties": {
        "@id": "way/259231880",
        "amenity": "school",
        "name": "I.E.I. Progreso",
        "@geometry": "center"
      },
      "geometry": {
        "type": "Point",
        "coordinates": [
          -71.9613149,
          -13.5296549
        ]
      },
      "id": "way/259231880"
    },
    {
      "type": "Feature",
      "properties": {
        "@id": "way/259530564",
        "addr:city": "Wanchaq",
        "addr:district": "Wanchaq",
        "addr:housenumber": "447",
        "addr:postcode": "08002",
        "addr:province": "Cusco",
        "addr:street": "Avenida Gastón Zapata",
        "addr:subdistrict": "Wanchaq",
        "amenity": "school",
        "ele": "3362",
        "isced:level": "1;2",
        "name": "Institución Educativa Capitán FAP José Abelardo Quiñones",
        "note": "Ubicacion_web_med (local)",
        "ref": "0933473;1386127",
        "source": "minedu.gob.pe",
        "@geometry": "center"
      },
      "geometry": {
        "type": "Point",
        "coordinates": [
          -71.9476035,
          -13.5305494
        ]
      },
      "id": "way/259530564"
    },
    {
      "type": "Feature",
      "properties": {
        "@id": "way/260037629",
        "amenity": "school",
        "name": "I.E. Miguel Grau",
        "@geometry": "center"
      },
      "geometry": {
        "type": "Point",
        "coordinates": [
          -71.9536058,
          -13.5283321
        ]
      },
      "id": "way/260037629"
    },
    {
      "type": "Feature",
      "properties": {
        "@id": "way/260231931",
        "addr:district": "Cusco",
        "addr:housenumber": "1900",
        "addr:province": "Cusco",
        "addr:street": "Avenida de la Cultura",
        "addr:subdistrict": "Cusco",
        "alt_name": "Colegio San Antonio Abad",
        "amenity": "school",
        "ele": "3400",
        "isced:level": "1;2",
        "name": "Institución Educativa San Antonio Abad",
        "note": "Ubicacion_web (local)",
        "ref": "0235085;0236695",
        "source": "minedu.gob.pe",
        "@geometry": "center"
      },
      "geometry": {
        "type": "Point",
        "coordinates": [
          -71.9500892,
          -13.525433
        ]
      },
      "id": "way/260231931"
    },
    {
      "type": "Feature",
      "properties": {
        "@id": "way/260231935",
        "addr:district": "Cusco",
        "addr:full": "Calle David Chaparro 102 Etapa I",
        "addr:province": "Cusco",
        "addr:subdistrict": "Cusco",
        "amenity": "school",
        "ele": "3400",
        "isced:level": "1;2",
        "name": "Institución Educativa Juan Landazuri Ricketts",
        "note": "Ubicacion_web_med (local)",
        "ref": "0818062;0928119",
        "source": "minedu.gob.pe",
        "@geometry": "center"
      },
      "geometry": {
        "type": "Point",
        "coordinates": [
          -71.9491524,
          -13.5259905
        ]
      },
      "id": "way/260231935"
    },
    {
      "type": "Feature",
      "properties": {
        "@id": "way/268795508",
        "addr:full": "Avenida Miguel Grau 257",
        "addr:province": "La Convención",
        "addr:subdistrict": "Quillabamba",
        "amenity": "school",
        "ele": "1053",
        "fixme": "Ubicar el POI en el lugar que corresponde",
        "isced:level": "2",
        "name": "Institución Educativa Manco II",
        "note": "Ubicacion_web (local)",
        "ref": "0233098",
        "source": "minedu.gob.pe",
        "@geometry": "center"
      },
      "geometry": {
        "type": "Point",
        "coordinates": [
          -72.6922315,
          -12.8653986
        ]
      },
      "id": "way/268795508"
    },
    {
      "type": "Feature",
      "properties": {
        "@id": "way/268817749",
        "amenity": "school",
        "name": "Juan de Cruz Montes Salas (ex 701)",
        "@geometry": "center"
      },
      "geometry": {
        "type": "Point",
        "coordinates": [
          -72.6921067,
          -12.8620811
        ]
      },
      "id": "way/268817749"
    },
    {
      "type": "Feature",
      "properties": {
        "@id": "way/276513999",
        "addr:district": "Machupicchu",
        "addr:full": "Las Orquídeas",
        "addr:place": "Machu Picchu Pueblo",
        "addr:province": "Urubamba",
        "addr:street": "Calle Tusuq",
        "amenity": "school",
        "ele": "2040",
        "ele:source": "https://www.openstreetmap.org/relation/1923761#map=20/-13.15380/-72.52736&layers=C",
        "isced:level": "2",
        "name": "Institución Educativa Inka Pachacútec",
        "note": "Gps_otras_fuentes (local)",
        "ref": "0671651",
        "source": "minedu.gob.pe",
        "@geometry": "center"
      },
      "geometry": {
        "type": "Point",
        "coordinates": [
          -72.5234975,
          -13.1554152
        ]
      },
      "id": "way/276513999"
    },
    {
      "type": "Feature",
      "properties": {
        "@id": "way/293374224",
        "amenity": "school",
        "barrier": "fence",
        "landuse": "grass",
        "name": "Colegio Miguel Grau de Vilcabamba",
        "@geometry": "center"
      },
      "geometry": {
        "type": "Point",
        "coordinates": [
          -72.9793272,
          -13.1256477
        ]
      },
      "id": "way/293374224"
    },
    {
      "type": "Feature",
      "properties": {
        "@id": "way/305429469",
        "amenity": "school",
        "name": "50344",
        "@geometry": "center"
      },
      "geometry": {
        "type": "Point",
        "coordinates": [
          -71.848868,
          -13.7634812
        ]
      },
      "id": "way/305429469"
    },
    {
      "type": "Feature",
      "properties": {
        "@id": "way/305511179",
        "amenity": "school",
        "name": "Colegio 50376",
        "@geometry": "center"
      },
      "geometry": {
        "type": "Point",
        "coordinates": [
          -71.8488239,
          -13.7968871
        ]
      },
      "id": "way/305511179"
    },
    {
      "type": "Feature",
      "properties": {
        "@id": "way/318001931",
        "amenity": "school",
        "@geometry": "center"
      },
      "geometry": {
        "type": "Point",
        "coordinates": [
          -72.0784999,
          -13.3629562
        ]
      },
      "id": "way/318001931"
    },
    {
      "type": "Feature",
      "properties": {
        "@id": "way/321564891",
        "amenity": "school",
        "@geometry": "center"
      },
      "geometry": {
        "type": "Point",
        "coordinates": [
          -72.1595304,
          -13.3685122
        ]
      },
      "id": "way/321564891"
    },
    {
      "type": "Feature",
      "properties": {
        "@id": "way/321566070",
        "amenity": "school",
        "@geometry": "center"
      },
      "geometry": {
        "type": "Point",
        "coordinates": [
          -72.075874,
          -13.3206573
        ]
      },
      "id": "way/321566070"
    },
    {
      "type": "Feature",
      "properties": {
        "@id": "way/322709584",
        "amenity": "school",
        "@geometry": "center"
      },
      "geometry": {
        "type": "Point",
        "coordinates": [
          -72.1881499,
          -13.3462351
        ]
      },
      "id": "way/322709584"
    },
    {
      "type": "Feature",
      "properties": {
        "@id": "way/323167897",
        "amenity": "school",
        "@geometry": "center"
      },
      "geometry": {
        "type": "Point",
        "coordinates": [
          -72.2800743,
          -13.2510143
        ]
      },
      "id": "way/323167897"
    },
    {
      "type": "Feature",
      "properties": {
        "@id": "way/327698140",
        "amenity": "school",
        "name": "Granja Escuela de Yucay",
        "@geometry": "center"
      },
      "geometry": {
        "type": "Point",
        "coordinates": [
          -72.0833056,
          -13.3157288
        ]
      },
      "id": "way/327698140"
    },
    {
      "type": "Feature",
      "properties": {
        "@id": "way/331463040",
        "addr:district": "Urubamba",
        "addr:full": "Avenida Sr Torrechayoc 620",
        "addr:province": "Urubamba",
        "addr:subdistrict": "Urubamba",
        "amenity": "school",
        "ele": "2872",
        "fixme": "Ubicar el POI en el lugar que corresponde",
        "isced:level": "2",
        "name": "Institución Educativa General Ollanta",
        "note": "Ubicacion_web (local)",
        "ref": "0236158",
        "source": "minedu.gob.pe",
        "@geometry": "center"
      },
      "geometry": {
        "type": "Point",
        "coordinates": [
          -72.1189237,
          -13.3018063
        ]
      },
      "id": "way/331463040"
    },
    {
      "type": "Feature",
      "properties": {
        "@id": "way/331463070",
        "amenity": "school",
        "name": "IEN 501224",
        "@geometry": "center"
      },
      "geometry": {
        "type": "Point",
        "coordinates": [
          -72.1201325,
          -13.3050738
        ]
      },
      "id": "way/331463070"
    },
    {
      "type": "Feature",
      "properties": {
        "@id": "way/331463601",
        "amenity": "school",
        "@geometry": "center"
      },
      "geometry": {
        "type": "Point",
        "coordinates": [
          -72.1317558,
          -13.3052628
        ]
      },
      "id": "way/331463601"
    },
    {
      "type": "Feature",
      "properties": {
        "@id": "way/331465289",
        "amenity": "school",
        "@geometry": "center"
      },
      "geometry": {
        "type": "Point",
        "coordinates": [
          -72.1282907,
          -13.2881023
        ]
      },
      "id": "way/331465289"
    },
    {
      "type": "Feature",
      "properties": {
        "@id": "way/335079194",
        "amenity": "school",
        "name": "Colegio Virgin del Carmen 50957",
        "@geometry": "center"
      },
      "geometry": {
        "type": "Point",
        "coordinates": [
          -72.1889491,
          -13.2689168
        ]
      },
      "id": "way/335079194"
    },
    {
      "type": "Feature",
      "properties": {
        "@id": "way/345121914",
        "addr:district": "Ollantaytambo",
        "addr:full": "Camicancha",
        "addr:province": "Urubamba",
        "addr:subdistrict": "Kcamicancha",
        "amenity": "school",
        "ele": "2895",
        "isced:level": "1",
        "name": "Institución Educativa No. 501271",
        "note": "Gps_otras_fuentes (local)",
        "ref": "0791624",
        "source": "minedu.gob.pe",
        "@geometry": "center"
      },
      "geometry": {
        "type": "Point",
        "coordinates": [
          -72.3238274,
          -13.2423321
        ]
      },
      "id": "way/345121914"
    },
    {
      "type": "Feature",
      "properties": {
        "@id": "way/345130802",
        "amenity": "school",
        "@geometry": "center"
      },
      "geometry": {
        "type": "Point",
        "coordinates": [
          -72.2609596,
          -13.2602268
        ]
      },
      "id": "way/345130802"
    },
    {
      "type": "Feature",
      "properties": {
        "@id": "way/345135512",
        "amenity": "school",
        "@geometry": "center"
      },
      "geometry": {
        "type": "Point",
        "coordinates": [
          -72.2194467,
          -13.27674
        ]
      },
      "id": "way/345135512"
    },
    {
      "type": "Feature",
      "properties": {
        "@id": "way/356337628",
        "amenity": "school",
        "name": "IES Ollanta",
        "@geometry": "center"
      },
      "geometry": {
        "type": "Point",
        "coordinates": [
          -72.2657567,
          -13.2613879
        ]
      },
      "id": "way/356337628"
    },
    {
      "type": "Feature",
      "properties": {
        "@id": "way/361640861",
        "amenity": "school",
        "@geometry": "center"
      },
      "geometry": {
        "type": "Point",
        "coordinates": [
          -72.2009872,
          -13.203538
        ]
      },
      "id": "way/361640861"
    },
    {
      "type": "Feature",
      "properties": {
        "@id": "way/364399007",
        "addr:district": "Maras",
        "addr:province": "Urubamba",
        "addr:street": "Calle Jesús",
        "addr:subdistrict": "Maras",
        "alt_name": "Colegio Virgen del Carmen",
        "amenity": "school",
        "ele": "3371",
        "isced:level": "1",
        "name": "Institución Educativa No. 50578",
        "note": "Gps_otras_fuentes (local)",
        "ref": "0410506",
        "source": "minedu.gob.pe",
        "@geometry": "center"
      },
      "geometry": {
        "type": "Point",
        "coordinates": [
          -72.1559482,
          -13.33542
        ]
      },
      "id": "way/364399007"
    },
    {
      "type": "Feature",
      "properties": {
        "@id": "way/367119591",
        "addr:city": "calca",
        "amenity": "school",
        "name": "Institución Educativa Humberto Luna",
        "@geometry": "center"
      },
      "geometry": {
        "type": "Point",
        "coordinates": [
          -71.9560456,
          -13.3204687
        ]
      },
      "id": "way/367119591"
    },
    {
      "type": "Feature",
      "properties": {
        "@id": "way/367120064",
        "amenity": "school",
        "@geometry": "center"
      },
      "geometry": {
        "type": "Point",
        "coordinates": [
          -71.9563826,
          -13.3201902
        ]
      },
      "id": "way/367120064"
    },
    {
      "type": "Feature",
      "properties": {
        "@id": "way/367124924",
        "amenity": "school",
        "@geometry": "center"
      },
      "geometry": {
        "type": "Point",
        "coordinates": [
          -71.962998,
          -13.5161472
        ]
      },
      "id": "way/367124924"
    },
    {
      "type": "Feature",
      "properties": {
        "@id": "way/367127939",
        "addr:city": "calca",
        "addr:street": "Av. Mariano de los Santos",
        "amenity": "school",
        "name": "I.E. Maximo San Roman",
        "@geometry": "center"
      },
      "geometry": {
        "type": "Point",
        "coordinates": [
          -71.9531301,
          -13.3225591
        ]
      },
      "id": "way/367127939"
    },
    {
      "type": "Feature",
      "properties": {
        "@id": "way/367129898",
        "amenity": "school",
        "landuse": "greenhouse_horticulture",
        "note": "Secundaria",
        "@geometry": "center"
      },
      "geometry": {
        "type": "Point",
        "coordinates": [
          -71.5757191,
          -13.7798517
        ]
      },
      "id": "way/367129898"
    },
    {
      "type": "Feature",
      "properties": {
        "@id": "way/367129945",
        "addr:city": "Calca",
        "amenity": "school",
        "name": "I.E. Nuestra Señora de Belen",
        "@geometry": "center"
      },
      "geometry": {
        "type": "Point",
        "coordinates": [
          -71.9575466,
          -13.3212916
        ]
      },
      "id": "way/367129945"
    },
    {
      "type": "Feature",
      "properties": {
        "@id": "way/367131029",
        "addr:district": "Calca",
        "addr:province": "Calca",
        "addr:street": "Avenida Vilcanota",
        "amenity": "school",
        "ele": "2932",
        "isced:level": "1;2",
        "name": "Institución Educativa Sagrado Corazón de Jesús",
        "note": "Gps_otras_fuentes (local)",
        "ref": "0406306;0932178",
        "source": "minedu.gob.pe",
        "@geometry": "center"
      },
      "geometry": {
        "type": "Point",
        "coordinates": [
          -71.9589952,
          -13.3222673
        ]
      },
      "id": "way/367131029"
    },
    {
      "type": "Feature",
      "properties": {
        "@id": "way/367132057",
        "addr:district": "Calca",
        "addr:province": "Calca",
        "addr:street": "Jirón Ucayali",
        "amenity": "school",
        "ele": "2932",
        "isced:level": "superiorformaciónartística",
        "name": "Bellas Artes Diego Quispe Ttito - Calca",
        "note": "Gps_otras_fuentes (local)",
        "ref": "1061894",
        "source": "minedu.gob.pe",
        "@geometry": "center"
      },
      "geometry": {
        "type": "Point",
        "coordinates": [
          -71.959641,
          -13.3251664
        ]
      },
      "id": "way/367132057"
    },
    {
      "type": "Feature",
      "properties": {
        "@id": "way/367132240",
        "addr:city": "Calca",
        "amenity": "school",
        "name": "I.E. Agropecuario de Calca",
        "@geometry": "center"
      },
      "geometry": {
        "type": "Point",
        "coordinates": [
          -71.9535515,
          -13.3277911
        ]
      },
      "id": "way/367132240"
    },
    {
      "type": "Feature",
      "properties": {
        "@id": "way/367135216",
        "addr:city": "Calca",
        "amenity": "school",
        "name": "I.E. Limacpampa",
        "@geometry": "center"
      },
      "geometry": {
        "type": "Point",
        "coordinates": [
          -71.9525863,
          -13.3244008
        ]
      },
      "id": "way/367135216"
    },
    {
      "type": "Feature",
      "properties": {
        "@id": "way/367135370",
        "addr:city": "Cusco",
        "addr:district": "Cusco",
        "addr:province": "Cusco",
        "addr:street": "Calle Teatro",
        "amenity": "school",
        "ele": "3400",
        "isced:level": "2",
        "name": "Institución Educativa Educandas",
        "note": "Ubicacion_web (local)",
        "ref": "0236224",
        "source": "minedu.gob.pe",
        "website": "http://www.educandascusco.edu.pe",
        "@geometry": "center"
      },
      "geometry": {
        "type": "Point",
        "coordinates": [
          -71.9823823,
          -13.5169213
        ]
      },
      "id": "way/367135370"
    },
    {
      "type": "Feature",
      "properties": {
        "@id": "way/367135460",
        "addr:city": "Cusco",
        "amenity": "school",
        "name": "CEP San Francisco de Asís",
        "@geometry": "center"
      },
      "geometry": {
        "type": "Point",
        "coordinates": [
          -71.9830319,
          -13.5184138
        ]
      },
      "id": "way/367135460"
    },
    {
      "type": "Feature",
      "properties": {
        "@id": "way/367153160",
        "amenity": "school",
        "name": "Centro Educativo 50500 \"San Martín de Porres\"",
        "@geometry": "center"
      },
      "geometry": {
        "type": "Point",
        "coordinates": [
          -71.8103796,
          -13.5715297
        ]
      },
      "id": "way/367153160"
    },
    {
      "type": "Feature",
      "properties": {
        "@id": "way/367153230",
        "amenity": "school",
        "@geometry": "center"
      },
      "geometry": {
        "type": "Point",
        "coordinates": [
          -71.7872486,
          -13.5866767
        ]
      },
      "id": "way/367153230"
    },
    {
      "type": "Feature",
      "properties": {
        "@id": "way/367153761",
        "addr:district": "Yanatile",
        "addr:full": "Colca",
        "addr:province": "Calca",
        "addr:subdistrict": "Colca",
        "alt_name": "Institución Educativa Colca",
        "amenity": "school",
        "ele": "1587",
        "isced:level": "1;2",
        "name": "Institución Educativa No. 50174",
        "note": "Gps_otras_fuentes (local)",
        "ref": "0487223;0621664",
        "source": "minedu.gob.pe",
        "@geometry": "center"
      },
      "geometry": {
        "type": "Point",
        "coordinates": [
          -72.1366142,
          -12.8449561
        ]
      },
      "id": "way/367153761"
    },
    {
      "type": "Feature",
      "properties": {
        "@id": "way/367444948",
        "amenity": "school",
        "name": "I.E. 50517",
        "@geometry": "center"
      },
      "geometry": {
        "type": "Point",
        "coordinates": [
          -71.5763369,
          -13.7783716
        ]
      },
      "id": "way/367444948"
    },
    {
      "type": "Feature",
      "properties": {
        "@id": "way/367916105",
        "addr:district": "Kimbiri",
        "addr:province": "La Convención",
        "amenity": "school",
        "ele": "580",
        "isced:level": "2",
        "name": "Institución Educativa Divino Maestro",
        "note": "Gps_otras_fuentes (local)",
        "ref": "0933077",
        "source": "minedu.gob.pe",
        "@geometry": "center"
      },
      "geometry": {
        "type": "Point",
        "coordinates": [
          -73.7910721,
          -12.6167219
        ]
      },
      "id": "way/367916105"
    },
    {
      "type": "Feature",
      "properties": {
        "@id": "way/368006410",
        "amenity": "school",
        "name": "I.E.S",
        "@geometry": "center"
      },
      "geometry": {
        "type": "Point",
        "coordinates": [
          -72.3379934,
          -13.226787
        ]
      },
      "id": "way/368006410"
    },
    {
      "type": "Feature",
      "properties": {
        "@id": "way/368014037",
        "amenity": "school",
        "@geometry": "center"
      },
      "geometry": {
        "type": "Point",
        "coordinates": [
          -72.3001491,
          -13.2323571
        ]
      },
      "id": "way/368014037"
    },
    {
      "type": "Feature",
      "properties": {
        "@id": "way/368844739",
        "addr:city": "yanatile",
        "amenity": "school",
        "@geometry": "center"
      },
      "geometry": {
        "type": "Point",
        "coordinates": [
          -72.2764197,
          -12.6828764
        ]
      },
      "id": "way/368844739"
    },
    {
      "type": "Feature",
      "properties": {
        "@id": "way/369912455",
        "amenity": "school",
        "@geometry": "center"
      },
      "geometry": {
        "type": "Point",
        "coordinates": [
          -72.2944117,
          -13.2519598
        ]
      },
      "id": "way/369912455"
    },
    {
      "type": "Feature",
      "properties": {
        "@id": "way/369922898",
        "amenity": "school",
        "@geometry": "center"
      },
      "geometry": {
        "type": "Point",
        "coordinates": [
          -72.2173803,
          -13.2328286
        ]
      },
      "id": "way/369922898"
    },
    {
      "type": "Feature",
      "properties": {
        "@id": "way/373335029",
        "amenity": "school",
        "name": "lEP Chillca",
        "@geometry": "center"
      },
      "geometry": {
        "type": "Point",
        "coordinates": [
          -72.345594,
          -13.2213676
        ]
      },
      "id": "way/373335029"
    },
    {
      "type": "Feature",
      "properties": {
        "@id": "way/377022103",
        "amenity": "school",
        "name": "Colegio 27 de Noviembre",
        "@geometry": "center"
      },
      "geometry": {
        "type": "Point",
        "coordinates": [
          -71.7419669,
          -13.6398349
        ]
      },
      "id": "way/377022103"
    },
    {
      "type": "Feature",
      "properties": {
        "@id": "way/378066381",
        "addr:city": "Cusco",
        "amenity": "school",
        "name": "I.E. Nº 51017 Mariscal Gamarra",
        "@geometry": "center"
      },
      "geometry": {
        "type": "Point",
        "coordinates": [
          -71.9623858,
          -13.5202801
        ]
      },
      "id": "way/378066381"
    },
    {
      "type": "Feature",
      "properties": {
        "@id": "way/396339569",
        "amenity": "school",
        "name": "Escuela Primaria de Patabamba",
        "@geometry": "center"
      },
      "geometry": {
        "type": "Point",
        "coordinates": [
          -71.7923784,
          -13.5604368
        ]
      },
      "id": "way/396339569"
    },
    {
      "type": "Feature",
      "properties": {
        "@id": "way/396339577",
        "amenity": "school",
        "name": "Escuela Primaria de Yanamanchi",
        "@geometry": "center"
      },
      "geometry": {
        "type": "Point",
        "coordinates": [
          -71.7451478,
          -13.6440704
        ]
      },
      "id": "way/396339577"
    },
    {
      "type": "Feature",
      "properties": {
        "@id": "way/396339579",
        "amenity": "school",
        "name": "Escuela Primaria 50480 de Lucre",
        "@geometry": "center"
      },
      "geometry": {
        "type": "Point",
        "coordinates": [
          -71.7346242,
          -13.6328132
        ]
      },
      "id": "way/396339579"
    },
    {
      "type": "Feature",
      "properties": {
        "@id": "way/396339580",
        "amenity": "school",
        "@geometry": "center"
      },
      "geometry": {
        "type": "Point",
        "coordinates": [
          -71.7240624,
          -13.614355
        ]
      },
      "id": "way/396339580"
    },
    {
      "type": "Feature",
      "properties": {
        "@id": "way/402808286",
        "amenity": "school",
        "name": "Fe y Alegria 21",
        "@geometry": "center"
      },
      "geometry": {
        "type": "Point",
        "coordinates": [
          -71.8814306,
          -13.54433
        ]
      },
      "id": "way/402808286"
    },
    {
      "type": "Feature",
      "properties": {
        "@id": "way/430113792",
        "addr:district": "Santiago",
        "addr:province": "Cusco",
        "addr:street": "Avenida Libertad",
        "amenity": "school",
        "ele": "3412",
        "fixme": "Ubicar el POI en el lugar que corresponde",
        "isced:level": "2",
        "name": "Institución Educativa Gran Mariscal Andrés Avelino Cáceres",
        "note": "Ubicacion_web (local)",
        "ref": "0927814",
        "source": "minedu.gob.pe",
        "@geometry": "center"
      },
      "geometry": {
        "type": "Point",
        "coordinates": [
          -71.9850872,
          -13.5311671
        ]
      },
      "id": "way/430113792"
    },
    {
      "type": "Feature",
      "properties": {
        "@id": "way/430113797",
        "amenity": "school",
        "@geometry": "center"
      },
      "geometry": {
        "type": "Point",
        "coordinates": [
          -71.9846807,
          -13.5342077
        ]
      },
      "id": "way/430113797"
    },
    {
      "type": "Feature",
      "properties": {
        "@id": "way/430113802",
        "addr:district": "Santiago",
        "addr:province": "Cusco",
        "addr:street": "Calle Ramón Castilla",
        "amenity": "school",
        "ele": "3412",
        "fixme": "Ubicar el POI en el lugar que corresponde",
        "isced:level": "1",
        "name": "Institución Educativa Gran Mariscal Andrés Avelino Cáceres",
        "note": "Ubicacion_web_med (local)",
        "ref": "0406793",
        "source": "minedu.gob.pe",
        "@geometry": "center"
      },
      "geometry": {
        "type": "Point",
        "coordinates": [
          -71.981383,
          -13.5296053
        ]
      },
      "id": "way/430113802"
    },
    {
      "type": "Feature",
      "properties": {
        "@id": "node/441230270",
        "amenity": "school"
      },
      "geometry": {
        "type": "Point",
        "coordinates": [
          -71.9064705,
          -13.5233295
        ]
      },
      "id": "node/441230270"
    },
    {
      "type": "Feature",
      "properties": {
        "@id": "way/445362398",
        "amenity": "school",
        "name": "Colegio San Luis Gonzaga",
        "@geometry": "center"
      },
      "geometry": {
        "type": "Point",
        "coordinates": [
          -72.4386855,
          -12.6164447
        ]
      },
      "id": "way/445362398"
    },
    {
      "type": "Feature",
      "properties": {
        "@id": "way/445362406",
        "amenity": "school",
        "name": "Colegio Javier Heraud",
        "@geometry": "center"
      },
      "geometry": {
        "type": "Point",
        "coordinates": [
          -72.4423402,
          -12.6180298
        ]
      },
      "id": "way/445362406"
    },
    {
      "type": "Feature",
      "properties": {
        "@id": "way/445841982",
        "amenity": "school",
        "name": "Colegio Bolivariano",
        "@geometry": "center"
      },
      "geometry": {
        "type": "Point",
        "coordinates": [
          -71.9321564,
          -13.5397802
        ]
      },
      "id": "way/445841982"
    },
    {
      "type": "Feature",
      "properties": {
        "@id": "way/445845510",
        "amenity": "school",
        "name": "Colegio Alejandro Velasco Astete (AVA)",
        "@geometry": "center"
      },
      "geometry": {
        "type": "Point",
        "coordinates": [
          -71.888647,
          -13.5477683
        ]
      },
      "id": "way/445845510"
    },
    {
      "type": "Feature",
      "properties": {
        "@id": "node/454739644",
        "addr:district": "Santa Teresa",
        "addr:full": "Santa Teresa S/n",
        "addr:province": "La Convención",
        "addr:subdistrict": "Santa Teresa",
        "amenity": "school",
        "ele": "1553",
        "isced:level": "1",
        "name": "Institución Educativa 50273 Virgen del Carmen",
        "note": "Med_gps (local)",
        "ref": "0407593",
        "source": "minedu.gob.pe"
      },
      "geometry": {
        "type": "Point",
        "coordinates": [
          -72.5920507,
          -13.1280399
        ]
      },
      "id": "node/454739644"
    },
    {
      "type": "Feature",
      "properties": {
        "@id": "node/454739649",
        "amenity": "school"
      },
      "geometry": {
        "type": "Point",
        "coordinates": [
          -72.5939374,
          -13.1299927
        ]
      },
      "id": "node/454739649"
    },
    {
      "type": "Feature",
      "properties": {
        "@id": "way/505868221",
        "amenity": "school",
        "name": "I.E. N° 50100 La Naval",
        "@geometry": "center"
      },
      "geometry": {
        "type": "Point",
        "coordinates": [
          -72.1476101,
          -13.4588332
        ]
      },
      "id": "way/505868221"
    },
    {
      "type": "Feature",
      "properties": {
        "@id": "way/543581151",
        "addr:district": "Challabamba",
        "addr:full": "Sunchubamba S/n",
        "addr:province": "Paucartambo",
        "addr:subdistrict": "Sunchubamba",
        "amenity": "school",
        "barrier": "wall",
        "ele": "2835",
        "isced:level": "superiorpedagógica",
        "name": "Virgen Del Carmen",
        "note": "Gps_otras_fuentes (local)",
        "@geometry": "center"
      },
      "geometry": {
        "type": "Point",
        "coordinates": [
          -71.6238588,
          -13.2564838
        ]
      },
      "id": "way/543581151"
    },
    {
      "type": "Feature",
      "properties": {
        "@id": "way/552652362",
        "amenity": "school",
        "name": "Escuela Comunidad Chocco",
        "@geometry": "center"
      },
      "geometry": {
        "type": "Point",
        "coordinates": [
          -71.9787877,
          -13.5547116
        ]
      },
      "id": "way/552652362"
    },
    {
      "type": "Feature",
      "properties": {
        "@id": "way/557483805",
        "amenity": "school",
        "@geometry": "center"
      },
      "geometry": {
        "type": "Point",
        "coordinates": [
          -73.9411989,
          -12.3222189
        ]
      },
      "id": "way/557483805"
    },
    {
      "type": "Feature",
      "properties": {
        "@id": "way/557484843",
        "addr:district": "Pichari",
        "addr:full": "Carretera Natividad S/n",
        "addr:province": "La Convención",
        "addr:subdistrict": "Mantaro",
        "amenity": "school",
        "ele": "517",
        "isced:level": "1;2",
        "name": "Institución Educativa No. 38633",
        "note": "Ubicacion_web (local)",
        "ref": "0935791;1386861",
        "source": "minedu.gob.pe",
        "@geometry": "center"
      },
      "geometry": {
        "type": "Point",
        "coordinates": [
          -73.9367685,
          -12.3220139
        ]
      },
      "id": "way/557484843"
    },
    {
      "type": "Feature",
      "properties": {
        "@id": "way/557487120",
        "addr:district": "Pichari",
        "addr:full": "Alto Parijari",
        "addr:province": "La Convención",
        "addr:subdistrict": "Alto Parijari",
        "amenity": "school",
        "ele": "876",
        "isced:level": "1",
        "name": "Institución Educativa No. 501398",
        "note": "Gps_otras_fuentes (local)",
        "ref": "1396456",
        "source": "minedu.gob.pe",
        "@geometry": "center"
      },
      "geometry": {
        "type": "Point",
        "coordinates": [
          -73.9048288,
          -12.3397123
        ]
      },
      "id": "way/557487120"
    },
    {
      "type": "Feature",
      "properties": {
        "@id": "way/557493288",
        "addr:district": "Pichari",
        "addr:full": "Carretera Shinungari Comunidad Nativa",
        "addr:province": "La Convención",
        "addr:subdistrict": "Shinungari",
        "amenity": "school",
        "ele": "606",
        "isced:level": "1",
        "name": "Institución Educativa No. 38943",
        "note": "Gps_otras_fuentes (local)",
        "ref": "0935890",
        "source": "minedu.gob.pe",
        "@geometry": "center"
      },
      "geometry": {
        "type": "Point",
        "coordinates": [
          -73.8999022,
          -12.379457
        ]
      },
      "id": "way/557493288"
    },
    {
      "type": "Feature",
      "properties": {
        "@id": "way/557496300",
        "addr:district": "Pichari",
        "addr:full": "San Cristobal S/n",
        "addr:province": "La Convención",
        "addr:subdistrict": "San Cristobal",
        "amenity": "school",
        "ele": "951",
        "isced:level": "1",
        "name": "Institución Educativa No. 38942",
        "note": "Gps_otras_fuentes (local)",
        "ref": "0935866",
        "source": "minedu.gob.pe",
        "@geometry": "center"
      },
      "geometry": {
        "type": "Point",
        "coordinates": [
          -73.8778162,
          -12.3846712
        ]
      },
      "id": "way/557496300"
    },
    {
      "type": "Feature",
      "properties": {
        "@id": "way/558086233",
        "addr:district": "Ocongate",
        "addr:full": "Pampacancha",
        "addr:province": "Quispicanchi",
        "addr:subdistrict": "Pampacancha",
        "amenity": "school",
        "ele": "3951",
        "isced:level": "2",
        "name": "Institución Educativa General Juan Velasco Alvarado",
        "note": "Gps_otras_fuentes (local)",
        "ref": "1395672",
        "source": "minedu.gob.pe",
        "@geometry": "center"
      },
      "geometry": {
        "type": "Point",
        "coordinates": [
          -71.2706146,
          -13.6302199
        ]
      },
      "id": "way/558086233"
    },
    {
      "type": "Feature",
      "properties": {
        "@id": "way/558086234",
        "addr:district": "Ocongate",
        "addr:full": "Pampacancha",
        "addr:province": "Quispicanchi",
        "addr:subdistrict": "Pampacancha",
        "amenity": "school",
        "ele": "3951",
        "isced:level": "1",
        "name": "Institución Educativa No. 50550",
        "note": "Gps_otras_fuentes (local)",
        "ref": "0410233",
        "source": "minedu.gob.pe",
        "@geometry": "center"
      },
      "geometry": {
        "type": "Point",
        "coordinates": [
          -71.2700788,
          -13.6303754
        ]
      },
      "id": "way/558086234"
    },
    {
      "type": "Feature",
      "properties": {
        "@id": "way/558087003",
        "addr:district": "Ocongate",
        "addr:full": "Chaupimayo",
        "addr:province": "Quispicanchi",
        "addr:subdistrict": "Chaupimayo",
        "amenity": "school",
        "ele": "3930",
        "isced:level": "1",
        "name": "Institución Educativa No. 501400",
        "note": "Gps_otras_fuentes (local)",
        "ref": "1343706",
        "source": "minedu.gob.pe",
        "@geometry": "center"
      },
      "geometry": {
        "type": "Point",
        "coordinates": [
          -71.2746021,
          -13.6336923
        ]
      },
      "id": "way/558087003"
    },
    {
      "type": "Feature",
      "properties": {
        "@id": "way/558087390",
        "amenity": "school",
        "@geometry": "center"
      },
      "geometry": {
        "type": "Point",
        "coordinates": [
          -71.2065841,
          -13.605745
        ]
      },
      "id": "way/558087390"
    },
    {
      "type": "Feature",
      "properties": {
        "@id": "way/558094966",
        "amenity": "school",
        "@geometry": "center"
      },
      "geometry": {
        "type": "Point",
        "coordinates": [
          -72.0684517,
          -14.1807003
        ]
      },
      "id": "way/558094966"
    },
    {
      "type": "Feature",
      "properties": {
        "@id": "way/558094967",
        "addr:district": "Colquemarca",
        "addr:full": "Yanque S/n",
        "addr:province": "Chumbivilcas",
        "addr:subdistrict": "Yanque",
        "amenity": "school",
        "ele": "3589",
        "isced:level": "1;2",
        "name": "Institución educativa No. 56326",
        "note": "Ubicacion_web (local)",
        "ref": "0234435;1327279",
        "source": "minedu.gob.pe",
        "@geometry": "center"
      },
      "geometry": {
        "type": "Point",
        "coordinates": [
          -72.0680641,
          -14.1805887
        ]
      },
      "id": "way/558094967"
    },
    {
      "type": "Feature",
      "properties": {
        "@id": "way/568042475",
        "amenity": "school",
        "name": "Sants Ana",
        "@geometry": "center"
      },
      "geometry": {
        "type": "Point",
        "coordinates": [
          -72.6938634,
          -12.8711554
        ]
      },
      "id": "way/568042475"
    },
    {
      "type": "Feature",
      "properties": {
        "@id": "way/568043027",
        "amenity": "school",
        "name": "C.E. La Convención",
        "@geometry": "center"
      },
      "geometry": {
        "type": "Point",
        "coordinates": [
          -72.6930731,
          -12.8574751
        ]
      },
      "id": "way/568043027"
    },
    {
      "type": "Feature",
      "properties": {
        "@id": "way/594335197",
        "amenity": "school",
        "@geometry": "center"
      },
      "geometry": {
        "type": "Point",
        "coordinates": [
          -72.5527977,
          -13.0050581
        ]
      },
      "id": "way/594335197"
    },
    {
      "type": "Feature",
      "properties": {
        "@id": "way/594335198",
        "amenity": "school",
        "@geometry": "center"
      },
      "geometry": {
        "type": "Point",
        "coordinates": [
          -72.5525013,
          -13.0048597
        ]
      },
      "id": "way/594335198"
    },
    {
      "type": "Feature",
      "properties": {
        "@id": "way/635819929",
        "amenity": "school",
        "denomination": "catholic",
        "name": "Colegio San José La Salle - Cusco",
        "religion": "christian",
        "@geometry": "center"
      },
      "geometry": {
        "type": "Point",
        "coordinates": [
          -71.9443984,
          -13.5554663
        ]
      },
      "id": "way/635819929"
    },
    {
      "type": "Feature",
      "properties": {
        "@id": "way/648617763",
        "amenity": "school",
        "name": "I.E.Mx. Humberto Luna",
        "@geometry": "center"
      },
      "geometry": {
        "type": "Point",
        "coordinates": [
          -71.9765611,
          -13.5241514
        ]
      },
      "id": "way/648617763"
    },
    {
      "type": "Feature",
      "properties": {
        "@id": "way/648617764",
        "amenity": "school",
        "name": "Institución Educativa 51003 Rosario",
        "@geometry": "center"
      },
      "geometry": {
        "type": "Point",
        "coordinates": [
          -71.9770585,
          -13.5234802
        ]
      },
      "id": "way/648617764"
    },
    {
      "type": "Feature",
      "properties": {
        "@id": "way/648617769",
        "amenity": "school",
        "name": "Institución Educativa San Martin De Porres",
        "@geometry": "center"
      },
      "geometry": {
        "type": "Point",
        "coordinates": [
          -71.9748786,
          -13.5212257
        ]
      },
      "id": "way/648617769"
    },
    {
      "type": "Feature",
      "properties": {
        "@id": "way/648617774",
        "amenity": "school",
        "name": "Institución Educativa Santa Rosa De Lima",
        "@geometry": "center"
      },
      "geometry": {
        "type": "Point",
        "coordinates": [
          -71.9746216,
          -13.5218054
        ]
      },
      "id": "way/648617774"
    },
    {
      "type": "Feature",
      "properties": {
        "@id": "way/648617779",
        "amenity": "school",
        "name": "Institución Educativa Las Mercedes",
        "@geometry": "center"
      },
      "geometry": {
        "type": "Point",
        "coordinates": [
          -71.9762845,
          -13.5202427
        ]
      },
      "id": "way/648617779"
    },
    {
      "type": "Feature",
      "properties": {
        "@id": "way/663311546",
        "amenity": "school",
        "@geometry": "center"
      },
      "geometry": {
        "type": "Point",
        "coordinates": [
          -72.0076241,
          -13.4996488
        ]
      },
      "id": "way/663311546"
    },
    {
      "type": "Feature",
      "properties": {
        "@id": "way/663577523",
        "amenity": "school",
        "@geometry": "center"
      },
      "geometry": {
        "type": "Point",
        "coordinates": [
          -72.0609675,
          -13.5817616
        ]
      },
      "id": "way/663577523"
    },
    {
      "type": "Feature",
      "properties": {
        "@id": "way/663945947",
        "amenity": "school",
        "@geometry": "center"
      },
      "geometry": {
        "type": "Point",
        "coordinates": [
          -72.1047492,
          -13.3043848
        ]
      },
      "id": "way/663945947"
    },
    {
      "type": "Feature",
      "properties": {
        "@id": "way/668572942",
        "addr:district": "Santiago",
        "addr:full": "Viva El Perú",
        "addr:province": "Cusco",
        "addr:subdistrict": "Santiago",
        "amenity": "school",
        "ele": "3370",
        "isced:level": "1;2",
        "name": "Institución Educativa Viva el Perú",
        "note": "Med_gps (local)",
        "ref": "0405316;0591164",
        "source": "minedu.gob.pe",
        "@geometry": "center"
      },
      "geometry": {
        "type": "Point",
        "coordinates": [
          -71.9605171,
          -13.53984
        ]
      },
      "id": "way/668572942"
    },
    {
      "type": "Feature",
      "properties": {
        "@id": "way/668572943",
        "amenity": "school",
        "@geometry": "center"
      },
      "geometry": {
        "type": "Point",
        "coordinates": [
          -71.9669107,
          -13.5355808
        ]
      },
      "id": "way/668572943"
    },
    {
      "type": "Feature",
      "properties": {
        "@id": "way/668572944",
        "amenity": "school",
        "@geometry": "center"
      },
      "geometry": {
        "type": "Point",
        "coordinates": [
          -71.9639128,
          -13.5339853
        ]
      },
      "id": "way/668572944"
    },
    {
      "type": "Feature",
      "properties": {
        "@id": "way/668572945",
        "amenity": "school",
        "@geometry": "center"
      },
      "geometry": {
        "type": "Point",
        "coordinates": [
          -71.9634583,
          -13.5386619
        ]
      },
      "id": "way/668572945"
    },
    {
      "type": "Feature",
      "properties": {
        "@id": "way/668572950",
        "amenity": "school",
        "@geometry": "center"
      },
      "geometry": {
        "type": "Point",
        "coordinates": [
          -71.9812227,
          -13.5257437
        ]
      },
      "id": "way/668572950"
    },
    {
      "type": "Feature",
      "properties": {
        "@id": "way/670832309",
        "amenity": "school",
        "@geometry": "center"
      },
      "geometry": {
        "type": "Point",
        "coordinates": [
          -71.9915794,
          -13.5275218
        ]
      },
      "id": "way/670832309"
    },
    {
      "type": "Feature",
      "properties": {
        "@id": "way/670832314",
        "amenity": "school",
        "@geometry": "center"
      },
      "geometry": {
        "type": "Point",
        "coordinates": [
          -71.9823854,
          -13.5194632
        ]
      },
      "id": "way/670832314"
    },
    {
      "type": "Feature",
      "properties": {
        "@id": "way/697090136",
        "amenity": "school",
        "@geometry": "center"
      },
      "geometry": {
        "type": "Point",
        "coordinates": [
          -71.620819,
          -14.3616952
        ]
      },
      "id": "way/697090136"
    },
    {
      "type": "Feature",
      "properties": {
        "@id": "way/699121403",
        "amenity": "school",
        "@geometry": "center"
      },
      "geometry": {
        "type": "Point",
        "coordinates": [
          -71.1841219,
          -14.7326838
        ]
      },
      "id": "way/699121403"
    },
    {
      "type": "Feature",
      "properties": {
        "@id": "way/711884176",
        "addr:district": "Layo",
        "addr:province": "Canas",
        "addr:street": "Calle San Martín",
        "addr:subdistrict": "Layo",
        "amenity": "school",
        "ele": "3982",
        "isced:level": "1",
        "name": "Institución Educativa No. 56133",
        "note": "Gps_otras_fuentes (local)",
        "ref": "0232272",
        "source": "minedu.gob.pe",
        "@geometry": "center"
      },
      "geometry": {
        "type": "Point",
        "coordinates": [
          -71.1543703,
          -14.4960009
        ]
      },
      "id": "way/711884176"
    },
    {
      "type": "Feature",
      "properties": {
        "@id": "way/711884182",
        "addr:district": "Layo",
        "addr:province": "Canas",
        "addr:street": "Jirón San Martín",
        "addr:subdistrict": "Layo",
        "amenity": "school",
        "ele": "3982",
        "isced:level": "2",
        "name": "Institución Educativa Técnico Agropecuario",
        "note": "Gps_otras_fuentes (local)",
        "ref": "0579458",
        "source": "minedu.gob.pe",
        "@geometry": "center"
      },
      "geometry": {
        "type": "Point",
        "coordinates": [
          -71.153054,
          -14.4973591
        ]
      },
      "id": "way/711884182"
    },
    {
      "type": "Feature",
      "properties": {
        "@id": "way/715182001",
        "addr:district": "Chinchaypujio",
        "addr:province": "Anta",
        "addr:street": "Calle España",
        "addr:subdistrict": "Chinchaypujio",
        "amenity": "school",
        "ele": "3107",
        "isced:level": "2",
        "name": "Institución Educativa San Antonio Abad de Chinchaypucyo",
        "note": "Gps_otras_fuentes (local)",
        "ref": "0579268",
        "source": "minedu.gob.pe",
        "@geometry": "center"
      },
      "geometry": {
        "type": "Point",
        "coordinates": [
          -72.2346596,
          -13.6287276
        ]
      },
      "id": "way/715182001"
    },
    {
      "type": "Feature",
      "properties": {
        "@id": "way/730645546",
        "amenity": "school",
        "@geometry": "center"
      },
      "geometry": {
        "type": "Point",
        "coordinates": [
          -71.2652412,
          -14.7168018
        ]
      },
      "id": "way/730645546"
    },
    {
      "type": "Feature",
      "properties": {
        "@id": "way/740118519",
        "addr:district": "San Sebastian",
        "addr:full": "Kari Grande",
        "addr:province": "Cusco",
        "addr:subdistrict": "Kari Grande",
        "amenity": "school",
        "ele": "3400",
        "fixme": "Ubicar el POI en el lugar que corresponde",
        "isced:level": "1",
        "name": "Institución Educativa Kari Grande",
        "note": "Ubicacion_web_med (local)",
        "ref": "1321256",
        "source": "minedu.gob.pe",
        "@geometry": "center"
      },
      "geometry": {
        "type": "Point",
        "coordinates": [
          -71.943676,
          -13.5236398
        ]
      },
      "id": "way/740118519"
    },
    {
      "type": "Feature",
      "properties": {
        "@id": "way/744512105",
        "addr:district": "Mosoc Llacta",
        "addr:province": "Acomayo",
        "addr:street": "Carretera Mosocllacta",
        "addr:subdistrict": "Mosoc Llacta",
        "amenity": "school",
        "ele": "3802",
        "isced:level": "2",
        "name": "Institución Educativa Daniel Estrada Pérez Mosocllacta",
        "note": "Gps_otras_fuentes (local)",
        "ref": "0931881",
        "source": "minedu.gob.pe",
        "@geometry": "center"
      },
      "geometry": {
        "type": "Point",
        "coordinates": [
          -71.4767551,
          -14.1223029
        ]
      },
      "id": "way/744512105"
    },
    {
      "type": "Feature",
      "properties": {
        "@id": "way/745193722",
        "amenity": "school",
        "name": "Innova Schools Huancaro",
        "@geometry": "center"
      },
      "geometry": {
        "type": "Point",
        "coordinates": [
          -71.9731541,
          -13.5325811
        ]
      },
      "id": "way/745193722"
    },
    {
      "type": "Feature",
      "properties": {
        "@id": "way/745995410",
        "amenity": "school",
        "name": "IES Técnico Agropecuario",
        "@geometry": "center"
      },
      "geometry": {
        "type": "Point",
        "coordinates": [
          -72.1227571,
          -13.3031448
        ]
      },
      "id": "way/745995410"
    },
    {
      "type": "Feature",
      "properties": {
        "@id": "way/745995411",
        "amenity": "school",
        "@geometry": "center"
      },
      "geometry": {
        "type": "Point",
        "coordinates": [
          -72.1220744,
          -13.3024961
        ]
      },
      "id": "way/745995411"
    },
    {
      "type": "Feature",
      "properties": {
        "@id": "way/746022187",
        "amenity": "school",
        "barrier": "wall",
        "@geometry": "center"
      },
      "geometry": {
        "type": "Point",
        "coordinates": [
          -72.0414411,
          -13.4248396
        ]
      },
      "id": "way/746022187"
    },
    {
      "type": "Feature",
      "properties": {
        "@id": "way/746232840",
        "amenity": "school",
        "@geometry": "center"
      },
      "geometry": {
        "type": "Point",
        "coordinates": [
          -72.0716538,
          -13.4816387
        ]
      },
      "id": "way/746232840"
    },
    {
      "type": "Feature",
      "properties": {
        "@id": "way/746267671",
        "addr:district": "Pallpata",
        "addr:province": "Espinar",
        "addr:subdistrict": "Hector Tejada",
        "amenity": "school",
        "ele": "4002",
        "isced:level": "1",
        "name": "Institución Educativa 56192 Simón Bolívar",
        "note": "Gps_otras_fuentes (local)",
        "ref": "0818948",
        "source": "minedu.gob.pe",
        "@geometry": "center"
      },
      "geometry": {
        "type": "Point",
        "coordinates": [
          -71.2123986,
          -14.8910366
        ]
      },
      "id": "way/746267671"
    },
    {
      "type": "Feature",
      "properties": {
        "@id": "way/746267672",
        "addr:district": "Pallpata",
        "addr:province": "Espinar",
        "addr:street": "Calle Manuel Prado",
        "addr:subdistrict": "Hector Tejada",
        "amenity": "school",
        "ele": "4002",
        "isced:level": "técnicoproductiva-cetpro",
        "name": "Domingo Huarca Cruz",
        "note": "Gps_otras_fuentes (local)",
        "ref": "1393271",
        "source": "minedu.gob.pe",
        "@geometry": "center"
      },
      "geometry": {
        "type": "Point",
        "coordinates": [
          -71.2083679,
          -14.8903387
        ]
      },
      "id": "way/746267672"
    },
    {
      "type": "Feature",
      "properties": {
        "@id": "way/746267673",
        "addr:district": "Pallpata",
        "addr:province": "Espinar",
        "addr:street": "Calle Manuel Prado",
        "addr:subdistrict": "Hector Tejada",
        "amenity": "school",
        "ele": "4002",
        "isced:level": "1;2",
        "name": "Institución Educativa 56191 Independencia Americana",
        "note": "Gps_otras_fuentes (local)",
        "ref": "0232850;1062397",
        "source": "minedu.gob.pe",
        "@geometry": "center"
      },
      "geometry": {
        "type": "Point",
        "coordinates": [
          -71.208343,
          -14.8883518
        ]
      },
      "id": "way/746267673"
    },
    {
      "type": "Feature",
      "properties": {
        "@id": "way/746267674",
        "addr:district": "Pallpata",
        "addr:province": "Espinar",
        "addr:street": "Jirón Cusco",
        "addr:subdistrict": "Hector Tejada",
        "amenity": "school",
        "ele": "4002",
        "isced:level": "2",
        "name": "Institución Educativa Héctor Tejada",
        "note": "Gps_otras_fuentes (local)",
        "ref": "0518282",
        "source": "minedu.gob.pe",
        "@geometry": "center"
      },
      "geometry": {
        "type": "Point",
        "coordinates": [
          -71.2141836,
          -14.887626
        ]
      },
      "id": "way/746267674"
    },
    {
      "type": "Feature",
      "properties": {
        "@id": "way/746277779",
        "amenity": "school",
        "@geometry": "center"
      },
      "geometry": {
        "type": "Point",
        "coordinates": [
          -72.0395602,
          -13.4354119
        ]
      },
      "id": "way/746277779"
    },
    {
      "type": "Feature",
      "properties": {
        "@id": "way/746277792",
        "amenity": "school",
        "@geometry": "center"
      },
      "geometry": {
        "type": "Point",
        "coordinates": [
          -72.0385366,
          -13.4451745
        ]
      },
      "id": "way/746277792"
    },
    {
      "type": "Feature",
      "properties": {
        "@id": "way/746292061",
        "amenity": "school",
        "@geometry": "center"
      },
      "geometry": {
        "type": "Point",
        "coordinates": [
          -72.0489877,
          -13.449516
        ]
      },
      "id": "way/746292061"
    },
    {
      "type": "Feature",
      "properties": {
        "@id": "way/747243998",
        "amenity": "school",
        "@geometry": "center"
      },
      "geometry": {
        "type": "Point",
        "coordinates": [
          -71.7245543,
          -14.3362518
        ]
      },
      "id": "way/747243998"
    },
    {
      "type": "Feature",
      "properties": {
        "@id": "way/748910797",
        "amenity": "school",
        "@geometry": "center"
      },
      "geometry": {
        "type": "Point",
        "coordinates": [
          -72.0507959,
          -13.3972922
        ]
      },
      "id": "way/748910797"
    },
    {
      "type": "Feature",
      "properties": {
        "@id": "way/748910798",
        "amenity": "school",
        "@geometry": "center"
      },
      "geometry": {
        "type": "Point",
        "coordinates": [
          -72.0511817,
          -13.3983651
        ]
      },
      "id": "way/748910798"
    },
    {
      "type": "Feature",
      "properties": {
        "@id": "way/749012679",
        "amenity": "school",
        "@geometry": "center"
      },
      "geometry": {
        "type": "Point",
        "coordinates": [
          -72.0792681,
          -13.36258
        ]
      },
      "id": "way/749012679"
    },
    {
      "type": "Feature",
      "properties": {
        "@id": "way/749012689",
        "amenity": "school",
        "@geometry": "center"
      },
      "geometry": {
        "type": "Point",
        "coordinates": [
          -72.0757367,
          -13.3644051
        ]
      },
      "id": "way/749012689"
    },
    {
      "type": "Feature",
      "properties": {
        "@id": "way/749954365",
        "amenity": "school",
        "@geometry": "center"
      },
      "geometry": {
        "type": "Point",
        "coordinates": [
          -72.0439032,
          -13.4950062
        ]
      },
      "id": "way/749954365"
    },
    {
      "type": "Feature",
      "properties": {
        "@id": "way/752105995",
        "amenity": "school",
        "@geometry": "center"
      },
      "geometry": {
        "type": "Point",
        "coordinates": [
          -71.9992163,
          -13.4114189
        ]
      },
      "id": "way/752105995"
    },
    {
      "type": "Feature",
      "properties": {
        "@id": "way/764657102",
        "amenity": "school",
        "description": "school",
        "@geometry": "center"
      },
      "geometry": {
        "type": "Point",
        "coordinates": [
          -72.0207949,
          -13.40801
        ]
      },
      "id": "way/764657102"
    },
    {
      "type": "Feature",
      "properties": {
        "@id": "way/779797054",
        "amenity": "school",
        "@geometry": "center"
      },
      "geometry": {
        "type": "Point",
        "coordinates": [
          -71.6252004,
          -13.4089202
        ]
      },
      "id": "way/779797054"
    },
    {
      "type": "Feature",
      "properties": {
        "@id": "way/780259319",
        "amenity": "school",
        "@geometry": "center"
      },
      "geometry": {
        "type": "Point",
        "coordinates": [
          -71.7474997,
          -13.6446478
        ]
      },
      "id": "way/780259319"
    },
    {
      "type": "Feature",
      "properties": {
        "@id": "way/782010470",
        "amenity": "school",
        "@geometry": "center"
      },
      "geometry": {
        "type": "Point",
        "coordinates": [
          -71.6689298,
          -13.5015997
        ]
      },
      "id": "way/782010470"
    },
    {
      "type": "Feature",
      "properties": {
        "@id": "way/784679918",
        "amenity": "school",
        "name": "institucion educativa san martin de porres",
        "@geometry": "center"
      },
      "geometry": {
        "type": "Point",
        "coordinates": [
          -72.082947,
          -13.8400903
        ]
      },
      "id": "way/784679918"
    },
    {
      "type": "Feature",
      "properties": {
        "@id": "way/784679935",
        "amenity": "school",
        "barrier": "wall",
        "@geometry": "center"
      },
      "geometry": {
        "type": "Point",
        "coordinates": [
          -72.0730951,
          -13.7982788
        ]
      },
      "id": "way/784679935"
    },
    {
      "type": "Feature",
      "properties": {
        "@id": "way/784679936",
        "amenity": "school",
        "@geometry": "center"
      },
      "geometry": {
        "type": "Point",
        "coordinates": [
          -72.0725715,
          -13.7985406
        ]
      },
      "id": "way/784679936"
    },
    {
      "type": "Feature",
      "properties": {
        "@id": "way/785191496",
        "amenity": "school",
        "@geometry": "center"
      },
      "geometry": {
        "type": "Point",
        "coordinates": [
          -71.1597924,
          -14.270676
        ]
      },
      "id": "way/785191496"
    },
    {
      "type": "Feature",
      "properties": {
        "@id": "way/785531612",
        "amenity": "school",
        "@geometry": "center"
      },
      "geometry": {
        "type": "Point",
        "coordinates": [
          -72.1356488,
          -14.5344848
        ]
      },
      "id": "way/785531612"
    },
    {
      "type": "Feature",
      "properties": {
        "@id": "way/787645468",
        "amenity": "school",
        "@geometry": "center"
      },
      "geometry": {
        "type": "Point",
        "coordinates": [
          -72.1226733,
          -13.3027169
        ]
      },
      "id": "way/787645468"
    },
    {
      "type": "Feature",
      "properties": {
        "@id": "way/789121820",
        "addr:district": "Chamaca",
        "addr:full": "Ingata",
        "addr:province": "Chumbivilcas",
        "addr:subdistrict": "Ingata",
        "alt_name": "Institucion Eduacativa Integrado Ingata N° 56265",
        "amenity": "school",
        "barrier": "wall",
        "ele": "3957",
        "isced:level": "1;2",
        "name": "Institución Educativa No. 56265",
        "note": "Ubicacion_web (local)",
        "ref": "0233833;1347301",
        "source": "minedu.gob.pe",
        "@geometry": "center"
      },
      "geometry": {
        "type": "Point",
        "coordinates": [
          -71.8969842,
          -14.2610622
        ]
      },
      "id": "way/789121820"
    },
    {
      "type": "Feature",
      "properties": {
        "@id": "way/791588030",
        "amenity": "school",
        "@geometry": "center"
      },
      "geometry": {
        "type": "Point",
        "coordinates": [
          -72.6941944,
          -12.8593158
        ]
      },
      "id": "way/791588030"
    },
    {
      "type": "Feature",
      "properties": {
        "@id": "way/791588031",
        "amenity": "school",
        "@geometry": "center"
      },
      "geometry": {
        "type": "Point",
        "coordinates": [
          -72.69432,
          -12.8588472
        ]
      },
      "id": "way/791588031"
    },
    {
      "type": "Feature",
      "properties": {
        "@id": "way/791588033",
        "amenity": "school",
        "@geometry": "center"
      },
      "geometry": {
        "type": "Point",
        "coordinates": [
          -72.6948491,
          -12.8595646
        ]
      },
      "id": "way/791588033"
    },
    {
      "type": "Feature",
      "properties": {
        "@id": "way/791588038",
        "amenity": "school",
        "@geometry": "center"
      },
      "geometry": {
        "type": "Point",
        "coordinates": [
          -72.6941495,
          -12.8632061
        ]
      },
      "id": "way/791588038"
    },
    {
      "type": "Feature",
      "properties": {
        "@id": "way/797784182",
        "addr:district": "Yucay",
        "addr:full": "Avenida San Martin 320",
        "addr:province": "Urubamba",
        "addr:subdistrict": "Yucay",
        "amenity": "school",
        "ele": "2858",
        "fixme": "Ubicar el POI en el lugar que corresponde",
        "isced:level": "1",
        "name": "Institución Educativa No. 50592",
        "note": "Ubicacion_web (local)",
        "ref": "0410647",
        "source": "minedu.gob.pe",
        "@geometry": "center"
      },
      "geometry": {
        "type": "Point",
        "coordinates": [
          -72.088056,
          -13.3192175
        ]
      },
      "id": "way/797784182"
    },
    {
      "type": "Feature",
      "properties": {
        "@id": "way/800801515",
        "amenity": "school",
        "building": "school",
        "@geometry": "center"
      },
      "geometry": {
        "type": "Point",
        "coordinates": [
          -71.4611789,
          -14.1438358
        ]
      },
      "id": "way/800801515"
    },
    {
      "type": "Feature",
      "properties": {
        "@id": "way/804298369",
        "amenity": "school",
        "name": "Institucion Educativa Policarpo Caballero Farfan",
        "@geometry": "center"
      },
      "geometry": {
        "type": "Point",
        "coordinates": [
          -71.5976325,
          -13.9867979
        ]
      },
      "id": "way/804298369"
    },
    {
      "type": "Feature",
      "properties": {
        "@id": "way/804311040",
        "amenity": "school",
        "@geometry": "center"
      },
      "geometry": {
        "type": "Point",
        "coordinates": [
          -73.1403552,
          -12.6234727
        ]
      },
      "id": "way/804311040"
    },
    {
      "type": "Feature",
      "properties": {
        "@id": "way/806784548",
        "amenity": "school",
        "@geometry": "center"
      },
      "geometry": {
        "type": "Point",
        "coordinates": [
          -71.6792092,
          -13.5006471
        ]
      },
      "id": "way/806784548"
    },
    {
      "type": "Feature",
      "properties": {
        "@id": "way/807687029",
        "amenity": "school",
        "@geometry": "center"
      },
      "geometry": {
        "type": "Point",
        "coordinates": [
          -71.7424331,
          -13.985178
        ]
      },
      "id": "way/807687029"
    },
    {
      "type": "Feature",
      "properties": {
        "@id": "way/808489164",
        "amenity": "school",
        "name": "Institución Educativa Inicial no. 596",
        "@geometry": "center"
      },
      "geometry": {
        "type": "Point",
        "coordinates": [
          -71.3143104,
          -14.2327841
        ]
      },
      "id": "way/808489164"
    },
    {
      "type": "Feature",
      "properties": {
        "@id": "way/819115828",
        "amenity": "school",
        "@geometry": "center"
      },
      "geometry": {
        "type": "Point",
        "coordinates": [
          -72.0818836,
          -13.761721
        ]
      },
      "id": "way/819115828"
    },
    {
      "type": "Feature",
      "properties": {
        "@id": "way/819596510",
        "amenity": "school",
        "@geometry": "center"
      },
      "geometry": {
        "type": "Point",
        "coordinates": [
          -73.8456751,
          -12.5212075
        ]
      },
      "id": "way/819596510"
    },
    {
      "type": "Feature",
      "properties": {
        "@id": "way/822833879",
        "amenity": "school",
        "@geometry": "center"
      },
      "geometry": {
        "type": "Point",
        "coordinates": [
          -71.1701766,
          -14.0916135
        ]
      },
      "id": "way/822833879"
    },
    {
      "type": "Feature",
      "properties": {
        "@id": "way/826550031",
        "addr:city": "San Sebastián",
        "addr:full": "Predio rural Kancao, sector Ticapata S/N, San Sebastián, Cusco, Perú",
        "addr:postcode": "08006",
        "addr:street": "Santa María",
        "alt_name": "Colegio Gal",
        "amenity": "school",
        "contact:email": "info@galschool.edu.pe",
        "contact:facebook": "https://www.facebook.com/GAL-School-1201652633258385/",
        "contact:phone": "+51 84 285649;+51 955 019 856",
        "contact:pinterest": "https://www.pinterest.com/galschoolcusco/",
        "contact:website": "http://www.galschool.edu.pe/",
        "contact:youtube": "https://www.youtube.com/results?search_query=gal+school+cusco+peru",
        "full_name": "Global Active Learning School",
        "name": "GAL School",
        "opening_hours": "Mo-Fr 09:00-13:00",
        "ref": "Campus GAL Group",
        "@geometry": "center"
      },
      "geometry": {
        "type": "Point",
        "coordinates": [
          -71.9024852,
          -13.5262494
        ]
      },
      "id": "way/826550031"
    },
    {
      "type": "Feature",
      "properties": {
        "@id": "way/837286331",
        "addr:district": "Calca",
        "addr:housenumber": "202",
        "addr:province": "Calca",
        "addr:street": "Avenida Garcilazo",
        "addr:subdistrict": "Calca",
        "amenity": "school",
        "ele": "2932",
        "isced:level": "1",
        "name": "Institución Educativa Santo Toribio de Mogrovejo",
        "note": "Ubicacion_web (local)",
        "ref": "1389295",
        "source": "minedu.gob.pe",
        "@geometry": "center"
      },
      "geometry": {
        "type": "Point",
        "coordinates": [
          -71.9556692,
          -13.3232739
        ]
      },
      "id": "way/837286331"
    },
    {
      "type": "Feature",
      "properties": {
        "@id": "way/839499715",
        "addr:district": "Lamay",
        "addr:full": "Mainique",
        "addr:province": "Calca",
        "addr:subdistrict": "Lamay",
        "amenity": "school",
        "ele": "2948",
        "isced:level": "2",
        "name": "Institución Educativa Eusebio Corazao",
        "ref": "0616128",
        "source": "minedu.gob.pe",
        "@geometry": "center"
      },
      "geometry": {
        "type": "Point",
        "coordinates": [
          -71.919246,
          -13.364764
        ]
      },
      "id": "way/839499715"
    },
    {
      "type": "Feature",
      "properties": {
        "@id": "way/839758160",
        "addr:district": "Espinar",
        "addr:province": "Espinar",
        "addr:subdistrict": "Cruz Cunca",
        "amenity": "school",
        "ele": "3893",
        "isced:level": "1",
        "name": "Institución Educativa No. 56208",
        "ref": "0233023",
        "source": "minedu.gob.pe",
        "@geometry": "center"
      },
      "geometry": {
        "type": "Point",
        "coordinates": [
          -71.3972812,
          -14.7900583
        ]
      },
      "id": "way/839758160"
    },
    {
      "type": "Feature",
      "properties": {
        "@id": "way/839785484",
        "addr:district": "Lamay",
        "addr:province": "Calca",
        "addr:street": "Calle Arequipa",
        "addr:subdistrict": "Lamay",
        "amenity": "school",
        "ele": "2948",
        "isced:level": "1",
        "name": "Institución Educativa 50160 San Luis Gonzaga",
        "ref": "0406405",
        "source": "minedu.gob.pe",
        "@geometry": "center"
      },
      "geometry": {
        "type": "Point",
        "coordinates": [
          -71.9198473,
          -13.3635444
        ]
      },
      "id": "way/839785484"
    },
    {
      "type": "Feature",
      "properties": {
        "@id": "way/844893602",
        "amenity": "school",
        "@geometry": "center"
      },
      "geometry": {
        "type": "Point",
        "coordinates": [
          -71.1698146,
          -14.3560529
        ]
      },
      "id": "way/844893602"
    },
    {
      "type": "Feature",
      "properties": {
        "@id": "way/844893614",
        "amenity": "school",
        "name": "I.E. jorge chavez",
        "@geometry": "center"
      },
      "geometry": {
        "type": "Point",
        "coordinates": [
          -71.1702856,
          -14.3540044
        ]
      },
      "id": "way/844893614"
    },
    {
      "type": "Feature",
      "properties": {
        "@id": "way/844893618",
        "amenity": "school",
        "name": "I.E. Llaquepata",
        "@geometry": "center"
      },
      "geometry": {
        "type": "Point",
        "coordinates": [
          -71.1699068,
          -14.3574012
        ]
      },
      "id": "way/844893618"
    },
    {
      "type": "Feature",
      "properties": {
        "@id": "way/844893620",
        "amenity": "school",
        "@geometry": "center"
      },
      "geometry": {
        "type": "Point",
        "coordinates": [
          -71.1677162,
          -14.3591684
        ]
      },
      "id": "way/844893620"
    },
    {
      "type": "Feature",
      "properties": {
        "@id": "way/844893629",
        "amenity": "school",
        "name": "Institución Educativa No. 56465",
        "@geometry": "center"
      },
      "geometry": {
        "type": "Point",
        "coordinates": [
          -71.1695311,
          -14.356448
        ]
      },
      "id": "way/844893629"
    },
    {
      "type": "Feature",
      "properties": {
        "@id": "way/851175896",
        "addr:district": "Combapata",
        "addr:province": "Canchis",
        "addr:street": "Calle Francisca Herrera",
        "addr:subdistrict": "Combapata",
        "amenity": "school",
        "ele": "3479",
        "isced:level": "1",
        "name": "Institución Educativa No. 56045",
        "note": "Gps_otras_fuentes (local)",
        "ref": "0201889",
        "source": "minedu.gob.pe",
        "@geometry": "center"
      },
      "geometry": {
        "type": "Point",
        "coordinates": [
          -71.4317851,
          -14.1033299
        ]
      },
      "id": "way/851175896"
    },
    {
      "type": "Feature",
      "properties": {
        "@id": "way/851929956",
        "addr:district": "Combapata",
        "addr:province": "Canchis",
        "addr:street": "Calle Velazco Astete",
        "addr:subdistrict": "Combapata",
        "amenity": "school",
        "ele": "3479",
        "isced:level": "2",
        "name": "Institución Educativa Jeronimo Zavala",
        "note": "Gps_otras_fuentes (local)",
        "ref": "0236638",
        "source": "minedu.gob.pe",
        "@geometry": "center"
      },
      "geometry": {
        "type": "Point",
        "coordinates": [
          -71.4340511,
          -14.0986575
        ]
      },
      "id": "way/851929956"
    },
    {
      "type": "Feature",
      "properties": {
        "@id": "node/874430118",
        "amenity": "school"
      },
      "geometry": {
        "type": "Point",
        "coordinates": [
          -71.130966,
          -14.408882
        ]
      },
      "id": "node/874430118"
    },
    {
      "type": "Feature",
      "properties": {
        "@id": "node/874430122",
        "addr:city": "Cusco",
        "addr:district": "Cusco",
        "addr:full": "Parque Tricentenario S/n",
        "addr:province": "Cusco",
        "addr:street": "Resbalosa",
        "addr:subdistrict": "Cusco",
        "amenity": "school",
        "ele": "3400",
        "isced:level": "1;2",
        "name": "Institución Educativa 51015 San Francisco de Borja",
        "note": "Ubicacion_web_med (local)",
        "ref": "0206136;0579151",
        "source": "minedu.gob.pe"
      },
      "geometry": {
        "type": "Point",
        "coordinates": [
          -71.9786579,
          -13.5153645
        ]
      },
      "id": "node/874430122"
    },
    {
      "type": "Feature",
      "properties": {
        "@id": "node/885655084",
        "amenity": "school",
        "name": "Divino Maestro ( C.E. Particular Primario )"
      },
      "geometry": {
        "type": "Point",
        "coordinates": [
          -72.1164279,
          -13.3072297
        ]
      },
      "id": "node/885655084"
    },
    {
      "type": "Feature",
      "properties": {
        "@id": "way/899080083",
        "addr:district": "Santo Tomas",
        "addr:province": "Chumbivilcas",
        "addr:subdistrict": "Pulpera",
        "amenity": "school",
        "ele": "3891",
        "isced:level": "1",
        "name": "Institución Educativa No. 501373",
        "note": "Gps_otras_fuentes (local)",
        "ref": "1392067",
        "source": "minedu.gob.pe",
        "@geometry": "center"
      },
      "geometry": {
        "type": "Point",
        "coordinates": [
          -72.0143281,
          -14.6393184
        ]
      },
      "id": "way/899080083"
    },
    {
      "type": "Feature",
      "properties": {
        "@id": "way/899080085",
        "addr:district": "Santo Tomas",
        "addr:province": "Chumbivilcas",
        "addr:subdistrict": "Pulpera",
        "amenity": "school",
        "ele": "3891",
        "isced:level": "2",
        "name": "Institución Educativa Antero Efrain Ugarte Vizcarra",
        "note": "Gps_otras_fuentes (local)",
        "ref": "0934141",
        "source": "minedu.gob.pe",
        "@geometry": "center"
      },
      "geometry": {
        "type": "Point",
        "coordinates": [
          -72.0185022,
          -14.6442906
        ]
      },
      "id": "way/899080085"
    },
    {
      "type": "Feature",
      "properties": {
        "@id": "way/925250122",
        "addr:district": "Wanchaq",
        "addr:full": "Jiron Antonio Raymondi Mz B Lote 12",
        "addr:province": "Cusco",
        "addr:subdistrict": "Wanchaq",
        "amenity": "school",
        "building": "house",
        "ele": "3362",
        "isced:level": "1;2",
        "name": "Institución Educativa El Nazareno",
        "note": "Ubicacion_web (local)",
        "ref": "0817940;0928085",
        "source": "minedu.gob.pe",
        "@geometry": "center"
      },
      "geometry": {
        "type": "Point",
        "coordinates": [
          -71.9509305,
          -13.5273147
        ]
      },
      "id": "way/925250122"
    },
    {
      "type": "Feature",
      "properties": {
        "@id": "way/964024847",
        "addr:district": "Lares",
        "addr:full": "Quishuarani Comunidad Quishuarani",
        "addr:province": "Calca",
        "addr:subdistrict": "Quishuarani",
        "amenity": "school",
        "ele": "3796",
        "fixme": "Ubicar el POI en el lugar que corresponde",
        "isced:level": "1",
        "name": "Institución Educativa No. 50197",
        "note": "Med_gps (local)",
        "ref": "0406843",
        "source": "minedu.gob.pe",
        "@geometry": "center"
      },
      "geometry": {
        "type": "Point",
        "coordinates": [
          -72.0306791,
          -13.1564373
        ]
      },
      "id": "way/964024847"
    },
    {
      "type": "Feature",
      "properties": {
        "@id": "way/964418790",
        "addr:district": "San Jeronimo",
        "addr:province": "Cusco",
        "addr:subdistrict": "San Jeronimo",
        "amenity": "school",
        "ele": "3243",
        "isced:level": "1;2",
        "name": "Institución Educativa 51023 San Luis Gonzaga",
        "note": "Ubicacion_web_med (local)",
        "ref": "0206227;1386432",
        "source": "minedu.gob.pe",
        "@geometry": "center"
      },
      "geometry": {
        "type": "Point",
        "coordinates": [
          -71.8825852,
          -13.5450635
        ]
      },
      "id": "way/964418790"
    },
    {
      "type": "Feature",
      "properties": {
        "@id": "way/965296529",
        "addr:district": "Huayllabamba",
        "addr:full": "La Playa",
        "addr:province": "Urubamba",
        "addr:subdistrict": "Huayllabamba",
        "amenity": "school",
        "ele": "2868",
        "isced:level": "2",
        "name": "Institución Educativa Nuestra Señora De Natividad",
        "note": "Ubicacion_web (local)",
        "ref": "0503557",
        "source": "minedu.gob.pe",
        "@geometry": "center"
      },
      "geometry": {
        "type": "Point",
        "coordinates": [
          -72.0620767,
          -13.3359674
        ]
      },
      "id": "way/965296529"
    },
    {
      "type": "Feature",
      "properties": {
        "@id": "node/965378786",
        "addr:street": "Arco Iris",
        "amenity": "school",
        "name": "Escuela San Cristobal"
      },
      "geometry": {
        "type": "Point",
        "coordinates": [
          -71.9790834,
          -13.5130604
        ]
      },
      "id": "node/965378786"
    },
    {
      "type": "Feature",
      "properties": {
        "@id": "way/965709215",
        "addr:district": "Urubamba",
        "addr:full": "Avenida La Convencion S/n",
        "addr:province": "Urubamba",
        "addr:subdistrict": "Urubamba",
        "amenity": "school",
        "ele": "2872",
        "isced:level": "1",
        "name": "Institución Educativa Ayni",
        "note": "Med-gps (cp)",
        "ref": "1757012",
        "source": "minedu.gob.pe",
        "@geometry": "center"
      },
      "geometry": {
        "type": "Point",
        "coordinates": [
          -72.1138616,
          -13.3086854
        ]
      },
      "id": "way/965709215"
    },
    {
      "type": "Feature",
      "properties": {
        "@id": "way/965735193",
        "addr:district": "Huayllabamba",
        "addr:full": "Calle Garcilaso S/n",
        "addr:province": "Urubamba",
        "addr:subdistrict": "Huayllabamba",
        "amenity": "school",
        "ele": "2868",
        "isced:level": "1",
        "name": "Institución Educativa No. 50588",
        "note": "Ubicacion_web (local)",
        "ref": "0410605",
        "source": "minedu.gob.pe",
        "@geometry": "center"
      },
      "geometry": {
        "type": "Point",
        "coordinates": [
          -72.0658851,
          -13.3354513
        ]
      },
      "id": "way/965735193"
    },
    {
      "type": "Feature",
      "properties": {
        "@id": "node/966364311",
        "addr:city": "Cusco",
        "addr:district": "Cusco",
        "addr:full": "Jiron Pumacurco 375",
        "addr:housenumber": "375",
        "addr:province": "Cusco",
        "addr:street": "Palacio",
        "addr:subdistrict": "Cusco",
        "amenity": "school",
        "ele": "3400",
        "isced:level": "1;2",
        "name": "Institución Educativa Maria Auxiliadora",
        "note": "Ubicacion_web_med (local)",
        "ref": "0234971;0236737",
        "source": "minedu.gob.pe"
      },
      "geometry": {
        "type": "Point",
        "coordinates": [
          -71.977601,
          -13.5144818
        ]
      },
      "id": "node/966364311"
    },
    {
      "type": "Feature",
      "properties": {
        "@id": "way/970737608",
        "amenity": "school",
        "@geometry": "center"
      },
      "geometry": {
        "type": "Point",
        "coordinates": [
          -72.0651998,
          -13.3377482
        ]
      },
      "id": "way/970737608"
    },
    {
      "type": "Feature",
      "properties": {
        "@id": "node/1003782710",
        "amenity": "school",
        "name": "Institución Educativa Privada José María Arguedas"
      },
      "geometry": {
        "type": "Point",
        "coordinates": [
          -71.9610975,
          -13.5305267
        ]
      },
      "id": "node/1003782710"
    },
    {
      "type": "Feature",
      "properties": {
        "@id": "node/1004136865",
        "amenity": "school",
        "name": "I.E.M.Revolucionaria Santa Rosa"
      },
      "geometry": {
        "type": "Point",
        "coordinates": [
          -71.9252239,
          -13.5349553
        ]
      },
      "id": "node/1004136865"
    },
    {
      "type": "Feature",
      "properties": {
        "@id": "way/1006001380",
        "addr:district": "Wanchaq",
        "addr:full": "Jiron Ricardo Palma S/n Mz N4 Lote ñ4",
        "addr:province": "Cusco",
        "addr:subdistrict": "Wanchaq",
        "amenity": "school",
        "building": "yes",
        "building:levels": "4",
        "ele": "3362",
        "fixme": "Ubicar el POI en el lugar que corresponde",
        "isced:level": "1",
        "name": "Institución Educativa Caminito Del Peru",
        "note": "Ubicacion_web (local)",
        "ref": "1405166",
        "roof:shape": "round",
        "source": "minedu.gob.pe",
        "@geometry": "center"
      },
      "geometry": {
        "type": "Point",
        "coordinates": [
          -71.9489016,
          -13.5306571
        ]
      },
      "id": "way/1006001380"
    },
    {
      "type": "Feature",
      "properties": {
        "@id": "node/1013453555",
        "amenity": "school",
        "name": "Instituto Superior Pedagogico Arco Iris"
      },
      "geometry": {
        "type": "Point",
        "coordinates": [
          -71.9116346,
          -13.5315381
        ]
      },
      "id": "node/1013453555"
    },
    {
      "type": "Feature",
      "properties": {
        "@id": "way/1014210540",
        "addr:district": "Espinar",
        "addr:full": "Tintaya Marquiri",
        "addr:province": "Espinar",
        "addr:subdistrict": "Tintaya Marquiri",
        "amenity": "school",
        "ele": "3991",
        "fixme": "Ubicar el POI en el lugar que corresponde",
        "isced:level": "2",
        "name": "Institución Educativa Jose Antonio Encinas",
        "note": "Gps_otras_fuentes (local)",
        "ref": "0931345",
        "source": "minedu.gob.pe",
        "@geometry": "center"
      },
      "geometry": {
        "type": "Point",
        "coordinates": [
          -71.3337832,
          -14.8629618
        ]
      },
      "id": "way/1014210540"
    },
    {
      "type": "Feature",
      "properties": {
        "@id": "node/1014221562",
        "addr:housenumber": "411",
        "addr:street": "Avenida Tomasa Tito Condemayta",
        "amenity": "school",
        "name": "Escuela Superior Tecnica Sencico"
      },
      "geometry": {
        "type": "Point",
        "coordinates": [
          -71.961971,
          -13.5252283
        ]
      },
      "id": "node/1014221562"
    },
    {
      "type": "Feature",
      "properties": {
        "@id": "way/1017573699",
        "amenity": "school",
        "@geometry": "center"
      },
      "geometry": {
        "type": "Point",
        "coordinates": [
          -72.0095768,
          -13.3131396
        ]
      },
      "id": "way/1017573699"
    },
    {
      "type": "Feature",
      "properties": {
        "@id": "way/1020071350",
        "addr:district": "Yucay",
        "addr:full": "Avenida Don Bosco S/n",
        "addr:province": "Urubamba",
        "addr:subdistrict": "Yucay",
        "amenity": "school",
        "ele": "2858",
        "fixme": "Ubicar el POI en el lugar que corresponde",
        "isced:level": "2",
        "name": "Institución Educativa Nuestra Señora Del Rosario",
        "note": "Ubicacion_web (local)",
        "ref": "0621276",
        "source": "minedu.gob.pe",
        "@geometry": "center"
      },
      "geometry": {
        "type": "Point",
        "coordinates": [
          -72.0859214,
          -13.3184349
        ]
      },
      "id": "way/1020071350"
    },
    {
      "type": "Feature",
      "properties": {
        "@id": "way/1050917747",
        "amenity": "school",
        "@geometry": "center"
      },
      "geometry": {
        "type": "Point",
        "coordinates": [
          -72.6469608,
          -12.5713579
        ]
      },
      "id": "way/1050917747"
    },
    {
      "type": "Feature",
      "properties": {
        "@id": "way/1055282958",
        "addr:district": "Wanchaq",
        "addr:full": "Avenida Tomasa Ttito Condemayta S/n",
        "addr:province": "Cusco",
        "addr:subdistrict": "Wanchaq",
        "amenity": "school",
        "ele": "3362",
        "isced:level": "1;2",
        "name": "Institución Educativa Maria De La Merced",
        "note": "Ubicacion_web_med (local)",
        "ref": "0406751;0579177",
        "source": "minedu.gob.pe",
        "@geometry": "center"
      },
      "geometry": {
        "type": "Point",
        "coordinates": [
          -71.9627443,
          -13.5246464
        ]
      },
      "id": "way/1055282958"
    },
    {
      "type": "Feature",
      "properties": {
        "@id": "way/1072857567",
        "amenity": "school",
        "@geometry": "center"
      },