{
  "type": "FeatureCollection",
  "generator": "overpass-ide",
  "copyright": "The data included in this document is from www.openstreetmap.org. The data is made available under ODbL.",
  "timestamp": "2023-07-05T03:27:23Z",
  "features": [
    {
      "type": "Feature",
      "properties": {
        "@id": "way/110164276",
        "amenity": "restaurant",
        "cuisine": "regional",
        "name": "Lodge",
        "@geometry": "center"
      },
      "geometry": {
        "type": "Point",
        "coordinates": [
          -72.0264425,
          -13.3153128
        ]
      },
      "id": "way/110164276"
    },
    {
      "type": "Feature",
      "properties": {
        "@id": "way/222283120",
        "amenity": "restaurant",
        "building": "yes",
        "name": "Restaurant Pollería Carmencita",
        "@geometry": "center"
      },
      "geometry": {
        "type": "Point",
        "coordinates": [
          -71.5973481,
          -13.3181568
        ]
      },
      "id": "way/222283120"
    },
    {
      "type": "Feature",
      "properties": {
        "@id": "way/280185662",
        "addr:city": "Cusco",
        "addr:postcode": "08002",
        "addr:street": "Calle Camino Real",
        "amenity": "restaurant",
        "building": "yes",
        "cuisine": "regional",
        "name": "Restaurante Camino Real",
        "@geometry": "center"
      },
      "geometry": {
        "type": "Point",
        "coordinates": [
          -71.9436156,
          -13.5251762
        ]
      },
      "id": "way/280185662"
    },
    {
      "type": "Feature",
      "properties": {
        "@id": "way/366976563",
        "amenity": "restaurant",
        "building": "yes",
        "@geometry": "center"
      },
      "geometry": {
        "type": "Point",
        "coordinates": [
          -71.9490568,
          -13.539477
        ]
      },
      "id": "way/366976563"
    },
    {
      "type": "Feature",
      "properties": {
        "@id": "way/366977435",
        "amenity": "restaurant",
        "building": "yes",
        "cuisine": "regional",
        "name": "inti wasi",
        "@geometry": "center"
      },
      "geometry": {
        "type": "Point",
        "coordinates": [
          -71.9486199,
          -13.5393813
        ]
      },
      "id": "way/366977435"
    },
    {
      "type": "Feature",
      "properties": {
        "@id": "way/367132618",
        "addr:city": "cusco",
        "amenity": "restaurant",
        "cuisine": "regional",
        "name": "Palácio del Inka",
        "website": "https://www.tripadvisor.com/Restaurant_Review-g294314-d2617372-Reviews-Restaurante_El_Palacio_del_Inka-Cusco_Cusco_Region.html",
        "@geometry": "center"
      },
      "geometry": {
        "type": "Point",
        "coordinates": [
          -71.9637852,
          -13.5139542
        ]
      },
      "id": "way/367132618"
    },
    {
      "type": "Feature",
      "properties": {
        "@id": "way/369440539",
        "addr:city": "Calca",
        "amenity": "restaurant",
        "building": "yes",
        "name": "Secretos del Valle",
        "@geometry": "center"
      },
      "geometry": {
        "type": "Point",
        "coordinates": [
          -71.9639905,
          -13.3224594
        ]
      },
      "id": "way/369440539"
    },
    {
      "type": "Feature",
      "properties": {
        "@id": "node/454739643",
        "amenity": "restaurant",
        "name": "Mama Coca"
      },
      "geometry": {
        "type": "Point",
        "coordinates": [
          -72.5939975,
          -13.1287221
        ]
      },
      "id": "node/454739643"
    },
    {
      "type": "Feature",
      "properties": {
        "@id": "way/495962289",
        "addr:city": "Ollantaytambo",
        "addr:street": "La Convención",
        "amenity": "restaurant",
        "capacity": "50",
        "cuisine": "coffee_shop;sandwich;american;ice_cream;international",
        "delivery": "no",
        "description": "At Sunshine Cafe, you can enjoy American-style breakfasts, sandwiches, salads, snacks, desserts, coffees, and craft beers in a beautiful environment and with friendly service. We have indoor seating, a balcony, and an open-air rooftop. Come relax!",
        "email": "sunshinecafeperu@gmail.com",
        "name": "Sunshine Cafe",
        "opening_hours": "Mo-Sa 08:00-18:00",
        "outdoor_seating": "yes",
        "payment:cash": "yes",
        "phone": "+51 963358595",
        "start_date": "March 22, 2017",
        "takeaway": "yes",
        "@geometry": "center"
      },
      "geometry": {
        "type": "Point",
        "coordinates": [
          -72.2650973,
          -13.2581137
        ]
      },
      "id": "way/495962289"
    },
    {
      "type": "Feature",
      "properties": {
        "@id": "way/530192738",
        "amenity": "restaurant",
        "building": "yes",
        "name": "Ñusta Restobar",
        "name:en": "Cafe Bar Restaurant",
        "name:es": "Cafe Bar Restaurante",
        "@geometry": "center"
      },
      "geometry": {
        "type": "Point",
        "coordinates": [
          -71.8554654,
          -13.4268846
        ]
      },
      "id": "way/530192738"
    },
    {
      "type": "Feature",
      "properties": {
        "@id": "node/588502660",
        "amenity": "restaurant",
        "highway": "traffic_signals",
        "name": "Pios Chicken"
      },
      "geometry": {
        "type": "Point",
        "coordinates": [
          -72.1475491,
          -13.4630194
        ]
      },
      "id": "node/588502660"
    },
    {
      "type": "Feature",
      "properties": {
        "@id": "way/591587216",
        "amenity": "restaurant",
        "building": "yes",
        "name": "Bar Restaurant",
        "@geometry": "center"
      },
      "geometry": {
        "type": "Point",
        "coordinates": [
          -71.8994657,
          -13.5279628
        ]
      },
      "id": "way/591587216"
    },
    {
      "type": "Feature",
      "properties": {
        "@id": "way/616345331",
        "amenity": "restaurant",
        "building": "yes",
        "name": "Jaya's Food",
        "@geometry": "center"
      },
      "geometry": {
        "type": "Point",
        "coordinates": [
          -71.8808198,
          -13.5453012
        ]
      },
      "id": "way/616345331"
    },
    {
      "type": "Feature",
      "properties": {
        "@id": "node/633941054",
        "amenity": "restaurant",
        "cuisine": "regional",
        "internet_access": "wlan",
        "name": "Peru Juice"
      },
      "geometry": {
        "type": "Point",
        "coordinates": [
          -71.9799365,
          -13.5183018
        ]
      },
      "id": "node/633941054"
    },
    {
      "type": "Feature",
      "properties": {
        "@id": "node/633941066",
        "amenity": "restaurant",
        "cuisine": "regional",
        "name": "Sueno Azul"
      },
      "geometry": {
        "type": "Point",
        "coordinates": [
          -71.9798808,
          -13.5151422
        ]
      },
      "id": "node/633941066"
    },
    {
      "type": "Feature",
      "properties": {
        "@id": "node/633941070",
        "addr:city": "Cusco",
        "addr:housenumber": "525",
        "addr:street": "Cuesta SanBlas",
        "amenity": "restaurant",
        "cuisine": "german",
        "internet_access": "no",
        "name": "Heidi",
        "phone": "+51 84 238383",
        "smoking": "no",
        "stars": "7"
      },
      "geometry": {
        "type": "Point",
        "coordinates": [
          -71.9754977,
          -13.515547
        ]
      },
      "id": "node/633941070"
    },
    {
      "type": "Feature",
      "properties": {
        "@id": "way/663920145",
        "amenity": "restaurant",
        "building": "yes",
        "name": "Las Acllas",
        "@geometry": "center"
      },
      "geometry": {
        "type": "Point",
        "coordinates": [
          -72.1009316,
          -13.312492
        ]
      },
      "id": "way/663920145"
    },
    {
      "type": "Feature",
      "properties": {
        "@id": "way/669732112",
        "amenity": "restaurant",
        "building": "yes",
        "cuisine": "peruana",
        "name": "MilCentro",
        "@geometry": "center"
      },
      "geometry": {
        "type": "Point",
        "coordinates": [
          -72.1968141,
          -13.3326208
        ]
      },
      "id": "way/669732112"
    },
    {
      "type": "Feature",
      "properties": {
        "@id": "way/681272114",
        "amenity": "restaurant",
        "cuisine": "regional",
        "diet:vegetarian": "yes",
        "internet_access": "yes",
        "internet_access:fee": "no",
        "name": "Deva Restaurant Típico",
        "smoking": "no",
        "takeaway": "yes",
        "@geometry": "center"
      },
      "geometry": {
        "type": "Point",
        "coordinates": [
          -71.9756963,
          -13.5179039
        ]
      },
      "id": "way/681272114"
    },
    {
      "type": "Feature",
      "properties": {
        "@id": "way/691156262",
        "addr:street": "Avenida de la Cultura",
        "amenity": "restaurant",
        "building": "yes",
        "cuisine": "seafood",
        "name": "Cevichería El Delfín",
        "@geometry": "center"
      },
      "geometry": {
        "type": "Point",
        "coordinates": [
          -71.899417,
          -13.5415055
        ]
      },
      "id": "way/691156262"
    },
    {
      "type": "Feature",
      "properties": {
        "@id": "way/691193938",
        "amenity": "restaurant",
        "building": "yes",
        "cuisine": "seafood",
        "name": "Cevichería",
        "@geometry": "center"
      },
      "geometry": {
        "type": "Point",
        "coordinates": [
          -71.8845063,
          -13.5446218
        ]
      },
      "id": "way/691193938"
    },
    {
      "type": "Feature",
      "properties": {
        "@id": "way/691207718",
        "amenity": "restaurant",
        "building": "yes",
        "cuisine": "chinese",
        "@geometry": "center"
      },
      "geometry": {
        "type": "Point",
        "coordinates": [
          -71.8898891,
          -13.5464962
        ]
      },
      "id": "way/691207718"
    },
    {
      "type": "Feature",
      "properties": {
        "@id": "way/692986122",
        "amenity": "restaurant",
        "building": "yes",
        "name": "La Posada",
        "@geometry": "center"
      },
      "geometry": {
        "type": "Point",
        "coordinates": [
          -71.8801173,
          -13.5416632
        ]
      },
      "id": "way/692986122"
    },
    {
      "type": "Feature",
      "properties": {
        "@id": "way/713157432",
        "amenity": "restaurant",
        "building": "yes",
        "@geometry": "center"
      },
      "geometry": {
        "type": "Point",
        "coordinates": [
          -71.5292448,
          -14.2410331
        ]
      },
      "id": "way/713157432"
    },
    {
      "type": "Feature",
      "properties": {
        "@id": "way/730138358",
        "amenity": "restaurant",
        "building": "yes",
        "@geometry": "center"
      },
      "geometry": {
        "type": "Point",
        "coordinates": [
          -72.6003231,
          -13.1102682
        ]
      },
      "id": "way/730138358"
    },
    {
      "type": "Feature",
      "properties": {
        "@id": "way/736634681",
        "amenity": "restaurant",
        "building": "yes",
        "@geometry": "center"
      },
      "geometry": {
        "type": "Point",
        "coordinates": [
          -71.2650412,
          -14.9227123
        ]
      },
      "id": "way/736634681"
    },
    {
      "type": "Feature",
      "properties": {
        "@id": "way/736634706",
        "amenity": "restaurant",
        "building": "yes",
        "@geometry": "center"
      },
      "geometry": {
        "type": "Point",
        "coordinates": [
          -71.266241,
          -14.9241532
        ]
      },
      "id": "way/736634706"
    },
    {
      "type": "Feature",
      "properties": {
        "@id": "way/775738444",
        "amenity": "restaurant",
        "building": "yes",
        "name": "Sección Comida, Desayuno, Almuerzo",
        "@geometry": "center"
      },
      "geometry": {
        "type": "Point",
        "coordinates": [
          -71.9708845,
          -13.5219832
        ]
      },
      "id": "way/775738444"
    },
    {
      "type": "Feature",
      "properties": {
        "@id": "way/782276316",
        "amenity": "restaurant",
        "building": "yes",
        "name": "Mirador el Molino",
        "@geometry": "center"
      },
      "geometry": {
        "type": "Point",
        "coordinates": [
          -72.077303,
          -13.3038324
        ]
      },
      "id": "way/782276316"
    },
    {
      "type": "Feature",
      "properties": {
        "@id": "way/784694033",
        "amenity": "restaurant",
        "building": "yes",
        "@geometry": "center"
      },
      "geometry": {
        "type": "Point",
        "coordinates": [
          -71.6496765,
          -14.1227187
        ]
      },
      "id": "way/784694033"
    },
    {
      "type": "Feature",
      "properties": {
        "@id": "way/785344652",
        "amenity": "restaurant",
        "building": "yes",
        "name": "La Pascana",
        "@geometry": "center"
      },
      "geometry": {
        "type": "Point",
        "coordinates": [
          -71.2163568,
          -14.2949754
        ]
      },
      "id": "way/785344652"
    },
    {
      "type": "Feature",
      "properties": {
        "@id": "way/785464807",
        "amenity": "restaurant",
        "building": "yes",
        "name": "Encantos de mi tierra",
        "@geometry": "center"
      },
      "geometry": {
        "type": "Point",
        "coordinates": [
          -71.2387027,
          -14.2764606
        ]
      },
      "id": "way/785464807"
    },
    {
      "type": "Feature",
      "properties": {
        "@id": "way/787128691",
        "amenity": "restaurant",
        "building": "yes",
        "name": "Rest Cevicheria El Comelon",
        "@geometry": "center"
      },
      "geometry": {
        "type": "Point",
        "coordinates": [
          -71.2284906,
          -14.2607893
        ]
      },
      "id": "way/787128691"
    },
    {
      "type": "Feature",
      "properties": {
        "@id": "way/787253686",
        "amenity": "restaurant",
        "building": "yes",
        "@geometry": "center"
      },
      "geometry": {
        "type": "Point",
        "coordinates": [
          -72.1504804,
          -13.2870385
        ]
      },
      "id": "way/787253686"
    },
    {
      "type": "Feature",
      "properties": {
        "@id": "way/787253687",
        "amenity": "restaurant",
        "building": "yes",
        "name": "El Ajo Macho",
        "@geometry": "center"
      },
      "geometry": {
        "type": "Point",
        "coordinates": [
          -72.1506279,
          -13.2872787
        ]
      },
      "id": "way/787253687"
    },
    {
      "type": "Feature",
      "properties": {
        "@id": "way/787253817",
        "amenity": "restaurant",
        "building": "yes",
        "name": "Hatuchay",
        "@geometry": "center"
      },
      "geometry": {
        "type": "Point",
        "coordinates": [
          -72.1570856,
          -13.2829931
        ]
      },
      "id": "way/787253817"
    },
    {
      "type": "Feature",
      "properties": {
        "@id": "way/787353648",
        "amenity": "restaurant",
        "building": "yes",
        "cuisine": "peruvian",
        "name": "Hacienda Puka Punku Restaurante",
        "phone": "+51 974 791 828",
        "website": "http://www.haciendapukapunku.com/",
        "@geometry": "center"
      },
      "geometry": {
        "type": "Point",
        "coordinates": [
          -72.144219,
          -13.2896737
        ]
      },
      "id": "way/787353648"
    },
    {
      "type": "Feature",
      "properties": {
        "@id": "way/790209565",
        "amenity": "restaurant",
        "building": "yes",
        "name": "Picantería Mamá Cecilia",
        "@geometry": "center"
      },
      "geometry": {
        "type": "Point",
        "coordinates": [
          -72.1059942,
          -13.3116134
        ]
      },
      "id": "way/790209565"
    },
    {
      "type": "Feature",
      "properties": {
        "@id": "way/790343038",
        "amenity": "restaurant",
        "building": "yes",
        "@geometry": "center"
      },
      "geometry": {
        "type": "Point",
        "coordinates": [
          -72.1063939,
          -13.3110694
        ]
      },
      "id": "way/790343038"
    },
    {
      "type": "Feature",
      "properties": {
        "@id": "way/790343039",
        "amenity": "restaurant",
        "building": "yes",
        "name": "Restaurante Casagrande",
        "@geometry": "center"
      },
      "geometry": {
        "type": "Point",
        "coordinates": [
          -72.1066789,
          -13.3114807
        ]
      },
      "id": "way/790343039"
    },
    {
      "type": "Feature",
      "properties": {
        "@id": "way/790358741",
        "amenity": "restaurant",
        "building": "yes",
        "name": "Casa Colonial del Libertador",
        "@geometry": "center"
      },
      "geometry": {
        "type": "Point",
        "coordinates": [
          -72.1157448,
          -13.3061365
        ]
      },
      "id": "way/790358741"
    },
    {
      "type": "Feature",
      "properties": {
        "@id": "way/794892817",
        "amenity": "restaurant",
        "building": "yes",
        "name": "Pisonay",
        "@geometry": "center"
      },
      "geometry": {
        "type": "Point",
        "coordinates": [
          -72.0648467,
          -13.3380141
        ]
      },
      "id": "way/794892817"
    },
    {
      "type": "Feature",
      "properties": {
        "@id": "way/797641542",
        "amenity": "restaurant",
        "building": "yes",
        "building:levels": "1",
        "@geometry": "center"
      },
      "geometry": {
        "type": "Point",
        "coordinates": [
          -71.5128177,
          -14.0056828
        ]
      },
      "id": "way/797641542"
    },
    {
      "type": "Feature",
      "properties": {
        "@id": "way/798376776",
        "amenity": "restaurant",
        "building": "yes",
        "name": "Don Julio",
        "@geometry": "center"
      },
      "geometry": {
        "type": "Point",
        "coordinates": [
          -71.8801778,
          -13.5411098
        ]
      },
      "id": "way/798376776"
    },
    {
      "type": "Feature",
      "properties": {
        "@id": "way/800424925",
        "amenity": "restaurant",
        "building": "yes",
        "cuisine": "peruvian",
        "name": "Jardines de Andrea",
        "phone": "+51974770404",
        "@geometry": "center"
      },
      "geometry": {
        "type": "Point",
        "coordinates": [
          -72.0634851,
          -13.3350428
        ]
      },
      "id": "way/800424925"
    },
    {
      "type": "Feature",
      "properties": {
        "@id": "way/800424987",
        "amenity": "restaurant",
        "building": "yes",
        "@geometry": "center"
      },
      "geometry": {
        "type": "Point",
        "coordinates": [
          -72.062561,
          -13.3377531
        ]
      },
      "id": "way/800424987"
    },
    {
      "type": "Feature",
      "properties": {
        "@id": "way/800815579",
        "amenity": "restaurant",
        "building": "yes",
        "name": "El Pimentón",
        "@geometry": "center"
      },
      "geometry": {
        "type": "Point",
        "coordinates": [
          -71.4595069,
          -14.1477371
        ]
      },
      "id": "way/800815579"
    },
    {
      "type": "Feature",
      "properties": {
        "@id": "way/801677631",
        "amenity": "restaurant",
        "building": "yes",
        "@geometry": "center"
      },
      "geometry": {
        "type": "Point",
        "coordinates": [
          -71.1342715,
          -14.3750642
        ]
      },
      "id": "way/801677631"
    },
    {
      "type": "Feature",
      "properties": {
        "@id": "way/801752798",
        "amenity": "restaurant",
        "building": "yes",
        "@geometry": "center"
      },
      "geometry": {
        "type": "Point",
        "coordinates": [
          -71.8827244,
          -13.5447067
        ]
      },
      "id": "way/801752798"
    },
    {
      "type": "Feature",
      "properties": {
        "@id": "way/801960149",
        "amenity": "restaurant",
        "building": "yes",
        "@geometry": "center"
      },
      "geometry": {
        "type": "Point",
        "coordinates": [
          -71.8884354,
          -13.544208
        ]
      },
      "id": "way/801960149"
    },
    {
      "type": "Feature",
      "properties": {
        "@id": "way/801972738",
        "amenity": "restaurant",
        "building": "yes",
        "cuisine": "chinese",
        "@geometry": "center"
      },
      "geometry": {
        "type": "Point",
        "coordinates": [
          -71.8865877,
          -13.5430356
        ]
      },
      "id": "way/801972738"
    },
    {
      "type": "Feature",
      "properties": {
        "@id": "way/802021965",
        "amenity": "restaurant",
        "building": "yes",
        "@geometry": "center"
      },
      "geometry": {
        "type": "Point",
        "coordinates": [
          -71.8848768,
          -13.543641
        ]
      },
      "id": "way/802021965"
    },
    {
      "type": "Feature",
      "properties": {
        "@id": "way/806693194",
        "amenity": "restaurant",
        "building": "yes",
        "@geometry": "center"
      },
      "geometry": {
        "type": "Point",
        "coordinates": [
          -71.6418145,
          -13.4671389
        ]
      },
      "id": "way/806693194"
    },
    {
      "type": "Feature",
      "properties": {
        "@id": "way/814333840",
        "amenity": "restaurant",
        "building": "yes",
        "name": "Quinta Campestre",
        "@geometry": "center"
      },
      "geometry": {
        "type": "Point",
        "coordinates": [
          -72.1106241,
          -13.4811495
        ]
      },
      "id": "way/814333840"
    },
    {
      "type": "Feature",
      "properties": {
        "@id": "way/814592182",
        "amenity": "restaurant",
        "building": "yes",
        "name": "Quinta Restaurante El Gallo Fino",
        "@geometry": "center"
      },
      "geometry": {
        "type": "Point",
        "coordinates": [
          -71.4038889,
          -12.9102004
        ]
      },
      "id": "way/814592182"
    },
    {
      "type": "Feature",
      "properties": {
        "@id": "node/876459575",
        "amenity": "restaurant",
        "name": "Tunupa",
        "website": "https://www.tunuparestaurantes.com/"
      },
      "geometry": {
        "type": "Point",
        "coordinates": [
          -72.15407,
          -13.2870787
        ]
      },
      "id": "node/876459575"
    },
    {
      "type": "Feature",
      "properties": {
        "@id": "node/885655085",
        "amenity": "restaurant",
        "name": "Restaurante Yucay Wasi",
        "wheelchair": "limited"
      },
      "geometry": {
        "type": "Point",
        "coordinates": [
          -72.1151016,
          -13.3082062
        ]
      },
      "id": "node/885655085"
    },
    {
      "type": "Feature",
      "properties": {
        "@id": "node/900135535",
        "addr:city": "Cusco",
        "addr:housenumber": "260",
        "addr:street": "Portal de Carnes",
        "amenity": "restaurant",
        "capacity": "50",
        "contact:facebook": "https://www.facebook.com/Papillon-Restaurant-664300166930388/",
        "internet_access": "wlan",
        "name": "Papillion",
        "name:es": "Papillion",
        "name:fr": "Le Papillon",
        "opening_hours": "Mo 17:30-21:30; Tu-Fr 11:30-14:00, 17:30-21:30; Sa 17:30-22:30; Su 17:00-21:00",
        "phone": "+51 84 256610"
      },
      "geometry": {
        "type": "Point",
        "coordinates": [
          -71.9787511,
          -13.5158079
        ]
      },
      "id": "node/900135535"
    },
    {
      "type": "Feature",
      "properties": {
        "@id": "node/900138358",
        "addr:housenumber": "410",
        "addr:postcode": "08000",
        "addr:street": "Huaynapata",
        "amenity": "restaurant",
        "cuisine": "peruvian",
        "email": "kusykayrestaurant@gmail.com",
        "internet_access": "wlan",
        "name": "Kusykay Peruvian Fusion Food",
        "name:en": "Kusykay Peruvian Fusion Food",
        "name:es": "Kusykay Peruvian Fusion Food",
        "opening_hours": "Mo-Su 11:00-22:00",
        "phone": "+51928047528"
      },
      "geometry": {
        "type": "Point",
        "coordinates": [
          -71.9794096,
          -13.5147029
        ]
      },
      "id": "node/900138358"
    },
    {
      "type": "Feature",
      "properties": {
        "@id": "node/900149248",
        "addr:city": "Cusco",
        "addr:housenumber": "261",
        "addr:street": "Calle Garcilaso",
        "alt_name": "Chi Cha Por Gaston Acurio",
        "amenity": "restaurant",
        "capacity": "50",
        "cuisine": "peruvian;fusion",
        "email": "reservacionescusco@chicha.com.pe",
        "level": "2",
        "name": "Chicha por Gaston Acurio",
        "opening_hours": "Mo-Su 12:00-22:30",
        "phone": "+51 84 240520",
        "website": "http://www.chicha.com.pe/es/cusco"
      },
      "geometry": {
        "type": "Point",
        "coordinates": [
          -71.9805442,
          -13.5171994
        ]
      },
      "id": "node/900149248"
    },
    {
      "type": "Feature",
      "properties": {
        "@id": "node/953494080",
        "addr:city": "Cusco",
        "addr:full": "2piso, 334 Plateros Cusco Peru",
        "addr:housenumber": "334",
        "addr:street": "Plateros",
        "amenity": "restaurant",
        "cuisine": "japanese",
        "internet_access": "wlan",
        "internet_access:fee": "no",
        "name": "Restaurante japonés Kintaro",
        "name:en": "Japanese Restaurant KINTARO",
        "name:es": "Restaurante japonés Kintaro",
        "opening_hours": "Mo-Sa 12:00-14:30,18:30-21:30",
        "phone": "+51 84 260638",
        "smoking": "separated",
        "stars": "7",
        "website": "http://www.cuscokintaro.com",
        "wheelchair": "no"
      },
      "geometry": {
        "type": "Point",
        "coordinates": [
          -71.9798375,
          -13.5159996
        ]
      },
      "id": "node/953494080"
    },
    {
      "type": "Feature",
      "properties": {
        "@id": "way/964418791",
        "amenity": "restaurant",
        "building": "yes",
        "cuisine": "seafood;peruvian",
        "name": "Mamá Lucía",
        "@geometry": "center"
      },
      "geometry": {
        "type": "Point",
        "coordinates": [
          -71.8823945,
          -13.5446123
        ]
      },
      "id": "way/964418791"
    },
    {
      "type": "Feature",
      "properties": {
        "@id": "way/964418810",
        "amenity": "restaurant",
        "building": "yes",
        "name": "Bar Restaurant Toñita",
        "@geometry": "center"
      },
      "geometry": {
        "type": "Point",
        "coordinates": [
          -71.8844509,
          -13.5443913
        ]
      },
      "id": "way/964418810"
    },
    {
      "type": "Feature",
      "properties": {
        "@id": "node/991381335",
        "addr:housenumber": "F-9",
        "addr:street": "Avenida Perú",
        "amenity": "restaurant",
        "cuisine": "Peruvian;Ceviche (marinated fish)",
        "name": "Cevicheria Las Machitas"
      },
      "geometry": {
        "type": "Point",
        "coordinates": [
          -71.9617688,
          -13.5305717
        ]
      },
      "id": "node/991381335"
    },
    {
      "type": "Feature",
      "properties": {
        "@id": "node/995445939",
        "amenity": "restaurant",
        "name": "Tunupa"
      },
      "geometry": {
        "type": "Point",
        "coordinates": [
          -71.9793855,
          -13.5169012
        ]
      },
      "id": "node/995445939"
    },
    {
      "type": "Feature",
      "properties": {
        "@id": "node/995446030",
        "addr:housenumber": "115",
        "addr:street": "Portal de Panes",
        "amenity": "restaurant",
        "cuisine": "regional",
        "email": "info@inkagrillcusco.com",
        "name": "Inka Grill",
        "opening_hours": "Mo-Su 11:00-23:00",
        "phone": "+51 84 262992",
        "website": "http://www.inkagrillcusco.com/"
      },
      "geometry": {
        "type": "Point",
        "coordinates": [
          -71.9793712,
          -13.5161922
        ]
      },
      "id": "node/995446030"
    },
    {
      "type": "Feature",
      "properties": {
        "@id": "node/995446070",
        "addr:housenumber": "105",
        "addr:street": "Portal de Panes",
        "amenity": "restaurant",
        "cuisine": "regional",
        "email": "respachacutec@terra.com.pe",
        "fax": "+51 84 245041",
        "name": "Pachacutec Cusco Restaurant",
        "phone": "+51 84 245041",
        "website": "http://www.pachacutecrestaurant.com/"
      },
      "geometry": {
        "type": "Point",
        "coordinates": [
          -71.9794755,
          -13.516287
        ]
      },
      "id": "node/995446070"
    },
    {
      "type": "Feature",
      "properties": {
        "@id": "node/995446284",
        "amenity": "restaurant",
        "cuisine": "regional",
        "name": "El Truco",
        "website": "http://restauranteltruco.com/lacarta.html"
      },
      "geometry": {
        "type": "Point",
        "coordinates": [
          -71.9806129,
          -13.5171102
        ]
      },
      "id": "node/995446284"
    },
    {
      "type": "Feature",
      "properties": {
        "@id": "node/1013377500",
        "amenity": "restaurant",
        "cuisine": "peruvian",
        "name": "Snack Restaurant Las Flores"
      },
      "geometry": {
        "type": "Point",
        "coordinates": [
          -72.3980603,
          -13.0697354
        ]
      },
      "id": "node/1013377500"
    },
    {
      "type": "Feature",
      "properties": {
        "@id": "node/1013571956",
        "amenity": "restaurant",
        "cuisine": "peruvian",
        "name": "El Chincho"
      },
      "geometry": {
        "type": "Point",
        "coordinates": [
          -72.1377807,
          -13.2932436
        ]
      },
      "id": "node/1013571956"
    },
    {
      "type": "Feature",
      "properties": {
        "@id": "node/1013777448",
        "addr:city": "Urubamba",
        "addr:housenumber": "272",
        "addr:street": "Jirón Bolivar",
        "amenity": "restaurant",
        "cuisine": "pizza",
        "name": "La Casa de la Abuela"
      },
      "geometry": {
        "type": "Point",
        "coordinates": [
          -72.1161695,
          -13.3052857
        ]
      },
      "id": "node/1013777448"
    },
    {
      "type": "Feature",
      "properties": {
        "@id": "way/1014415995",
        "amenity": "restaurant",
        "building": "yes",
        "@geometry": "center"
      },
      "geometry": {
        "type": "Point",
        "coordinates": [
          -72.1123054,
          -13.3101246
        ]
      },
      "id": "way/1014415995"
    },
    {
      "type": "Feature",
      "properties": {
        "@id": "way/1172660042",
        "amenity": "restaurant",
        "@geometry": "center"
      },
      "geometry": {
        "type": "Point",
        "coordinates": [
          -72.0548214,
          -13.1100343
        ]
      },
      "id": "way/1172660042"
    },
    {
      "type": "Feature",
      "properties": {
        "@id": "node/1257133031",
        "amenity": "restaurant",
        "name": "Inti Killa"
      },
      "geometry": {
        "type": "Point",
        "coordinates": [
          -72.2637219,
          -13.2588896
        ]
      },
      "id": "node/1257133031"
    },
    {
      "type": "Feature",
      "properties": {
        "@id": "node/1342584570",
        "amenity": "restaurant",
        "cuisine": "regional",
        "internet_access": "wlan",
        "name": "Yacumama Grill I"
      },
      "geometry": {
        "type": "Point",
        "coordinates": [
          -72.5939288,
          -13.1292434
        ]
      },
      "id": "node/1342584570"
    },
    {
      "type": "Feature",
      "properties": {
        "@id": "node/1428454219",
        "amenity": "restaurant",
        "cuisine": "regional",
        "name": "Ñucchu"
      },
      "geometry": {
        "type": "Point",
        "coordinates": [
          -71.9756833,
          -13.5154613
        ]
      },
      "id": "node/1428454219"
    },
    {
      "type": "Feature",
      "properties": {
        "@id": "node/1519922773",
        "amenity": "restaurant",
        "contact:email": "hairi1988@hotmail.com",
        "contact:phone": "+51 964 764 846",
        "diet:vegetarian": "yes",
        "name": "El Encanto"
      },
      "geometry": {
        "type": "Point",
        "coordinates": [
          -71.8495469,
          -13.4215791
        ]
      },
      "id": "node/1519922773"
    },
    {
      "type": "Feature",
      "properties": {
        "@id": "node/1764335435",
        "amenity": "restaurant",
        "name": "El Huacatay",
        "phone": "+51 84 201790",
        "website": "http://www.elhuacatay.com"
      },
      "geometry": {
        "type": "Point",
        "coordinates": [
          -72.1150059,
          -13.3076848
        ]
      },
      "id": "node/1764335435"
    },
    {
      "type": "Feature",
      "properties": {
        "@id": "node/1884113154",
        "amenity": "restaurant",
        "name": "Llactapata Lodge",
        "name:en": "Llaqtapata lodge",
        "website": "https://www.dominantmountain.com/llactapata-restaurant"
      },
      "geometry": {
        "type": "Point",
        "coordinates": [
          -72.5813133,
          -13.1854406
        ]
      },
      "id": "node/1884113154"
    },
    {
      "type": "Feature",
      "properties": {
        "@id": "node/1884113173",
        "amenity": "restaurant"
      },
      "geometry": {
        "type": "Point",
        "coordinates": [
          -72.6460073,
          -13.279009
        ]
      },
      "id": "node/1884113173"
    },
    {
      "type": "Feature",
      "properties": {
        "@id": "node/1913887101",
        "addr:city": "Cusco",
        "addr:housenumber": "236",
        "addr:street": "Portal de Carnes",
        "amenity": "restaurant",
        "cuisine": "japanese",
        "email": "limo@cuscorestaurants.com",
        "name": "Limo",
        "opening_hours": "Mo-Su 11:30-23:30",
        "operator": "Cuzco Restaurants",
        "phone": "+51 84 240668",
        "website": "http://www.cuscorestaurants.com/restaurant/limo/"
      },
      "geometry": {
        "type": "Point",
        "coordinates": [
          -71.9787079,
          -13.5158448
        ]
      },
      "id": "node/1913887101"
    },
    {
      "type": "Feature",
      "properties": {
        "@id": "node/1990578187",
        "amenity": "restaurant",
        "name": "La Esquina"
      },
      "geometry": {
        "type": "Point",
        "coordinates": [
          -72.693453,
          -12.8638372
        ]
      },
      "id": "node/1990578187"
    },
    {
      "type": "Feature",
      "properties": {
        "@id": "node/2204524314",
        "amenity": "restaurant",
        "cuisine": "neoandino",
        "name": "Fallen Angel"
      },
      "geometry": {
        "type": "Point",
        "coordinates": [
          -71.977517,
          -13.5151099
        ]
      },
      "id": "node/2204524314"
    },
    {
      "type": "Feature",
      "properties": {
        "@id": "node/2574753025",
        "addr:city": "Cusco",
        "addr:housename": "Los Toldos",
        "addr:street": "San Andrés Nr. 219",
        "amenity": "restaurant",
        "cuisine": "barbecue;roasted_chicken",
        "name": "Los Toldos"
      },
      "geometry": {
        "type": "Point",
        "coordinates": [
          -71.9788236,
          -13.519246
        ]
      },
      "id": "node/2574753025"
    },
    {
      "type": "Feature",
      "properties": {
        "@id": "node/2574782926",
        "addr:block": "L",
        "addr:city": "Cusco",
        "addr:housename": "Pizza Rapida",
        "addr:neighbourhood": "Urbanización La Florida",
        "addr:plot": "15",
        "amenity": "restaurant",
        "cuisine": "pizza",
        "name": "Pizza Rapida"
      },
      "geometry": {
        "type": "Point",
        "coordinates": [
          -71.9609708,
          -13.5319423
        ]
      },
      "id": "node/2574782926"
    },
    {
      "type": "Feature",
      "properties": {
        "@id": "node/2640566426",
        "amenity": "restaurant",
        "name": "Restaurante Gusto y Sabor"
      },
      "geometry": {
        "type": "Point",
        "coordinates": [
          -71.9456217,
          -13.5305651
        ]
      },
      "id": "node/2640566426"
    },
    {
      "type": "Feature",
      "properties": {
        "@id": "node/2640572110",
        "amenity": "restaurant",
        "cuisine": "chinese",
        "name": "Chifa Status"
      },
      "geometry": {
        "type": "Point",
        "coordinates": [
          -71.9491289,
          -13.5263001
        ]
      },
      "id": "node/2640572110"
    },
    {
      "type": "Feature",
      "properties": {
        "@id": "node/2640572456",
        "amenity": "restaurant",
        "cuisine": "international",
        "name": "Sabor de Casa"
      },
      "geometry": {
        "type": "Point",
        "coordinates": [
          -71.9486454,
          -13.5257064
        ]
      },
      "id": "node/2640572456"
    },
    {
      "type": "Feature",
      "properties": {
        "@id": "node/2651305706",
        "addr:city": "Wanchaq",
        "addr:postcode": "08002",
        "addr:street": "Avenida de la Cultura",
        "amenity": "restaurant",
        "cuisine": "chicken",
        "name": "Pollería Che Pibe",
        "smoking": "no"
      },
      "geometry": {
        "type": "Point",
        "coordinates": [
          -71.9458624,
          -13.5277725
        ]
      },
      "id": "node/2651305706"
    },
    {
      "type": "Feature",
      "properties": {
        "@id": "node/2657159585",
        "amenity": "restaurant",
        "cuisine": "chicken",
        "name": "Etapoy"
      },
      "geometry": {
        "type": "Point",
        "coordinates": [
          -71.9516894,
          -13.5259532
        ]
      },
      "id": "node/2657159585"
    },
    {
      "type": "Feature",
      "properties": {
        "@id": "node/2657159612",
        "amenity": "restaurant"
      },
      "geometry": {
        "type": "Point",
        "coordinates": [
          -71.949137,
          -13.5269442
        ]
      },
      "id": "node/2657159612"
    },
    {
      "type": "Feature",
      "properties": {
        "@id": "node/2688807075",
        "amenity": "restaurant",
        "name": "Lucy"
      },
      "geometry": {
        "type": "Point",
        "coordinates": [
          -71.1373941,
          -15.3008645
        ]
      },
      "id": "node/2688807075"
    },
    {
      "type": "Feature",
      "properties": {
        "@id": "node/2741367970",
        "amenity": "restaurant",
        "name": "Restaurate Don Félix"
      },
      "geometry": {
        "type": "Point",
        "coordinates": [
          -72.694558,
          -12.8619813
        ]
      },
      "id": "node/2741367970"
    },
    {
      "type": "Feature",
      "properties": {
        "@id": "node/2751246297",
        "amenity": "restaurant",
        "cuisine": "regional",
        "name": "Laguna Azul"
      },
      "geometry": {
        "type": "Point",
        "coordinates": [
          -71.9764786,
          -13.5066042
        ]
      },
      "id": "node/2751246297"
    },
    {
      "type": "Feature",
      "properties": {
        "@id": "node/2780817723",
        "amenity": "restaurant",
        "cuisine": "pizza",
        "name": "Paititi"
      },
      "geometry": {
        "type": "Point",
        "coordinates": [
          -71.9777222,
          -13.5170362
        ]
      },
      "id": "node/2780817723"
    },
    {
      "type": "Feature",
      "properties": {
        "@id": "node/2823847962",
        "addr:city": "Wanchaq",
        "addr:postcode": "08002",
        "addr:street": "Avenida Emilio Barclay",
        "amenity": "restaurant",
        "capacity": "23",
        "cuisine": "regional",
        "name": "Anticuchos La Gordita",
        "smoking": "no"
      },
      "geometry": {
        "type": "Point",
        "coordinates": [
          -71.9454186,
          -13.5276398
        ]
      },
      "id": "node/2823847962"
    },
    {
      "type": "Feature",
      "properties": {
        "@id": "node/2823847963",
        "addr:city": "Wanchaq",
        "addr:postcode": "08002",
        "addr:street": "Avenida Emilio Barclay",
        "amenity": "restaurant",
        "capacity": "40",
        "cuisine": "chicken",
        "name": "Los Toldos",
        "smoking": "no"
      },
      "geometry": {
        "type": "Point",
        "coordinates": [
          -71.9451863,
          -13.5276239
        ]
      },
      "id": "node/2823847963"
    },
    {
      "type": "Feature",
      "properties": {
        "@id": "node/2823847985",
        "addr:city": "Wanchaq",
        "addr:postcode": "08002",
        "addr:street": "Avenida de la Cultura",
        "amenity": "restaurant",
        "cuisine": "fast_food",
        "name": "Bendita Gula",
        "smoking": "no"
      },
      "geometry": {
        "type": "Point",
        "coordinates": [
          -71.9468818,
          -13.5273466
        ]
      },
      "id": "node/2823847985"
    },
    {
      "type": "Feature",
      "properties": {
        "@id": "node/2823847986",
        "amenity": "restaurant",
        "cuisine": "chinese",
        "name": "Chifa Imperial"
      },
      "geometry": {
        "type": "Point",
        "coordinates": [
          -71.9467731,
          -13.5273634
        ]
      },
      "id": "node/2823847986"
    },
    {
      "type": "Feature",
      "properties": {
        "@id": "node/2823847987",
        "amenity": "restaurant",
        "cuisine": "chicken",
        "name": "Giros Pollos Quillabamba",
        "smoking": "no"
      },
      "geometry": {
        "type": "Point",
        "coordinates": [
          -71.9466918,
          -13.5273723
        ]
      },
      "id": "node/2823847987"
    },
    {
      "type": "Feature",
      "properties": {
        "@id": "node/2823847989",
        "addr:city": "Wanchaq",
        "addr:postcode": "08002",
        "addr:street": "Avenida de la Cultura",
        "amenity": "restaurant",
        "cuisine": "Meat",
        "name": "Tayte fe Rodizzio",
        "smoking": "no"
      },
      "geometry": {
        "type": "Point",
        "coordinates": [
          -71.9466186,
          -13.5273792
        ]
      },
      "id": "node/2823847989"
    },
    {
      "type": "Feature",
      "properties": {
        "@id": "node/2824550021",
        "addr:city": "Wanchaq",
        "addr:postcode": "08002",
        "addr:street": "Avenida Rafael Aguilar Páez",
        "amenity": "restaurant",
        "cuisine": "chicken",
        "name": "Ají Seco Brass",
        "smoking": "no"
      },
      "geometry": {
        "type": "Point",
        "coordinates": [
          -71.945747,
          -13.5278422
        ]
      },
      "id": "node/2824550021"
    },
    {
      "type": "Feature",
      "properties": {
        "@id": "node/2824550030",
        "addr:city": "Wanchaq",
        "addr:postcode": "08002",
        "addr:street": "Avenida Rafael Aguilar Páez",
        "amenity": "restaurant",
        "capacity": "15",
        "cuisine": "regional",
        "name": "Asturias",
        "smoking": "no"
      },
      "geometry": {
        "type": "Point",
        "coordinates": [
          -71.9457865,
          -13.528026
        ]
      },
      "id": "node/2824550030"
    },
    {
      "type": "Feature",
      "properties": {
        "@id": "node/2824550031",
        "addr:city": "Wanchaq",
        "addr:postcode": "08002",
        "addr:street": "Avenida Rafael Aguilar Páez",
        "amenity": "restaurant",
        "cuisine": "fish_and_chips",
        "name": "Cevichería Frutos del Mar",
        "smoking": "no"
      },
      "geometry": {
        "type": "Point",
        "coordinates": [
          -71.9457972,
          -13.5281877
        ]
      },
      "id": "node/2824550031"
    },
    {
      "type": "Feature",
      "properties": {
        "@id": "node/2827470428",
        "amenity": "restaurant",
        "cuisine": "regional",
        "name": "Kuchu Wasi",
        "phone": "+51 84 501409"
      },
      "geometry": {
        "type": "Point",
        "coordinates": [
          -72.2621971,
          -13.2570284
        ]
      },
      "id": "node/2827470428"
    },
    {
      "type": "Feature",
      "properties": {
        "@id": "node/3151852660",
        "amenity": "restaurant",
        "name": "Bako"
      },
      "geometry": {
        "type": "Point",
        "coordinates": [
          -71.9758119,
          -13.5165091
        ]
      },
      "id": "node/3151852660"
    },
    {
      "type": "Feature",
      "properties": {
        "@id": "node/3151852730",
        "addr:city": "Cusco",
        "addr:housenumber": "138",
        "addr:street": "Herrajes",
        "amenity": "restaurant",
        "name": "La Bodega 138"
      },
      "geometry": {
        "type": "Point",
        "coordinates": [
          -71.9764488,
          -13.5164914
        ]
      },
      "id": "node/3151852730"
    },
    {
      "type": "Feature",
      "properties": {
        "@id": "node/3158586751",
        "addr:city": "Cusco",
        "addr:housenumber": "393",
        "addr:street": "Calle Triunfo",
        "amenity": "restaurant",
        "cuisine": "fusion",
        "email": "reservas@cicciolinacuzco.com",
        "name": "Cicciolina",
        "name:es": "Cicciolina",
        "name:ko": "치치올리나",
        "phone": "+51 84 239510",
        "website": "http://www.cicciolinacuzco.com/"
      },
      "geometry": {
        "type": "Point",
        "coordinates": [
          -71.9766914,
          -13.5161649
        ]
      },
      "id": "node/3158586751"
    },
    {
      "type": "Feature",
      "properties": {
        "@id": "node/3235483761",
        "addr:city": "Cusco",
        "addr:housenumber": "121",
        "addr:street": "Palacio",
        "amenity": "restaurant",
        "cuisine": "regional;peruvian",
        "email": "reservas@cuscodining.com",
        "name": "Marcelo Batata",
        "operator": "Cuzco Dinning",
        "phone": "+51 84 222424",
        "website": "https://cuscodining.com/marcelo-batata/"
      },
      "geometry": {
        "type": "Point",
        "coordinates": [
          -71.976856,
          -13.5159087
        ]
      },
      "id": "node/3235483761"
    },
    {
      "type": "Feature",
      "properties": {
        "@id": "node/3257425221",
        "addr:city": "Cusco",
        "addr:housenumber": "366-B",
        "addr:street": "Santa Catalina Ancha",
        "amenity": "restaurant",
        "capacity": "30",
        "cuisine": "rohkost;international;regional;saisonal",
        "cuisine:en": "raw;international;regional;seasonal",
        "cuisine:es": "crudo;internacional;nacional;regional;de temporada",
        "diet:vegan": "only",
        "ele": "3400",
        "name": "Shaman Vegan Raw Restaurant",
        "opening_hours": "Mo-Su 09:00-21:00",
        "phone": "+51 84 261419",
        "smoking": "no",
        "website": "https://shamancenter.org/restaurant/",
        "wheelchair": "yes"
      },
      "geometry": {
        "type": "Point",
        "coordinates": [
          -71.9763788,
          -13.5173474
        ]
      },
      "id": "node/3257425221"
    },
    {
      "type": "Feature",
      "properties": {
        "@id": "node/3267219954",
        "amenity": "restaurant"
      },
      "geometry": {
        "type": "Point",
        "coordinates": [
          -71.2369875,
          -14.2733759
        ]
      },
      "id": "node/3267219954"
    },
    {
      "type": "Feature",
      "properties": {
        "@id": "node/3271038121",
        "addr:housenumber": "159",
        "addr:street": "Calle Arequipa",
        "amenity": "restaurant",
        "cuisine": "sushi,peruvian,fusion",
        "name": "Sapayshi",
        "name:en": "Supayshi",
        "opening_hours": "Mo-Sa 12:30-16:00, 18:00-22:00",
        "phone": "+5184262870",
        "source": "Bing,survey",
        "website": "http://www.supayshi.com/"
      },
      "geometry": {
        "type": "Point",
        "coordinates": [
          -71.976439,
          -13.5182643
        ]
      },
      "id": "node/3271038121"
    },
    {
      "type": "Feature",
      "properties": {
        "@id": "node/3326429167",
        "amenity": "restaurant",
        "name": "pequeña russia"
      },
      "geometry": {
        "type": "Point",
        "coordinates": [
          -71.9214184,
          -13.5310916
        ]
      },
      "id": "node/3326429167"
    },
    {
      "type": "Feature",
      "properties": {
        "@id": "node/3385410005",
        "amenity": "restaurant"
      },
      "geometry": {
        "type": "Point",
        "coordinates": [
          -72.1269246,
          -13.2799779
        ]
      },
      "id": "node/3385410005"
    },
    {
      "type": "Feature",
      "properties": {
        "@id": "node/3411058349",
        "addr:city": "Cusco",
        "addr:housenumber": "235",
        "addr:postcode": "08001",
        "addr:street": "Carmen Bajo",
        "amenity": "restaurant",
        "cuisine": "raw;peruvian",
        "diet:vegan": "only",
        "diet:vegetarian": "only",
        "ele": "4264",
        "name": "Green Point, Vegan Food",
        "opening_hours": "Mo-Su 08:00-22:00",
        "phone": "+51 84 431146",
        "smoking": "outside",
        "takeaway": "yes",
        "website": "http://www.greenpointveganrestaurant.com/"
      },
      "geometry": {
        "type": "Point",
        "coordinates": [
          -71.9737523,
          -13.5156484
        ]
      },
      "id": "node/3411058349"
    },
    {
      "type": "Feature",
      "properties": {
        "@id": "node/3684135772",
        "amenity": "restaurant",
        "cuisine": "regional",
        "name": "Siete & Siete"
      },
      "geometry": {
        "type": "Point",
        "coordinates": [
          -71.9753083,
          -13.5131387
        ]
      },
      "id": "node/3684135772"
    },
    {
      "type": "Feature",
      "properties": {
        "@id": "node/3710779475",
        "addr:city": "Wanchaq",
        "addr:housenumber": "F-6",
        "addr:postcode": "084",
        "addr:street": "Avenida Velasco Astete",
        "amenity": "restaurant",
        "capacity": "25",
        "cuisine": "regional",
        "delivery": "yes",
        "name": "Polleria Velasco",
        "opening_hours": "Mo-Su 11:00-22:00",
        "takeaway": "yes"
      },
      "geometry": {
        "type": "Point",
        "coordinates": [
          -71.9479058,
          -13.5383659
        ]
      },
      "id": "node/3710779475"
    },
    {
      "type": "Feature",
      "properties": {
        "@id": "node/3710829369",
        "addr:street": "velas astete",
        "amenity": "restaurant",
        "capacity": "50",
        "cuisine": "chinese",
        "name": "wanton",
        "opening_hours": "Mo-Fr 09:00-22:00"
      },
      "geometry": {
        "type": "Point",
        "coordinates": [
          -71.9500398,
          -13.5378738
        ]
      },
      "id": "node/3710829369"
    },
    {
      "type": "Feature",
      "properties": {
        "@id": "node/3721889310",
        "amenity": "restaurant",
        "name": "Pollería"
      },
      "geometry": {
        "type": "Point",
        "coordinates": [
          -71.973346,
          -13.5273367
        ]
      },
      "id": "node/3721889310"
    },
    {
      "type": "Feature",
      "properties": {
        "@id": "node/3721889918",
        "amenity": "restaurant",
        "cuisine": "roasted_chicken"
      },
      "geometry": {
        "type": "Point",
        "coordinates": [
          -71.9726782,
          -13.5285271
        ]
      },
      "id": "node/3721889918"
    },
    {
      "type": "Feature",
      "properties": {
        "@id": "node/3730567744",
        "amenity": "restaurant"
      },
      "geometry": {
        "type": "Point",
        "coordinates": [
          -73.5138103,
          -13.0013763
        ]
      },
      "id": "node/3730567744"
    },
    {
      "type": "Feature",
      "properties": {
        "@id": "node/3807569242",
        "amenity": "restaurant",
        "name": "Restaurante Buffet Tinkuy"
      },
      "geometry": {
        "type": "Point",
        "coordinates": [
          -72.5431033,
          -13.165974
        ]
      },
      "id": "node/3807569242"
    },
    {
      "type": "Feature",
      "properties": {
        "@id": "node/3889300222",
        "addr:street": "Wilfredo Calisto Sanchez",
        "amenity": "restaurant",
        "capacity": "50",
        "cuisine": "pizza;regional;mexican;grill",
        "delivery": "yes",
        "name": "Flaudios Grill",
        "opening_hours": "Mo-Su 6:00-23:00",
        "payment:cash": "yes",
        "payment:credit_cards": "yes",
        "payment:debit_cards": "yes",
        "phone": "+51 966 741 210",
        "smoking": "isolated",
        "takeaway": "yes",
        "wheelchair": "no"
      },
      "geometry": {
        "type": "Point",
        "coordinates": [
          -72.5941261,
          -13.1295409
        ]
      },
      "id": "node/3889300222"
    },
    {
      "type": "Feature",
      "properties": {
        "@id": "node/3893674254",
        "addr:housenumber": "306",
        "addr:street": "Avenida Pachacuteq",
        "amenity": "restaurant",
        "bar": "yes",
        "cuisine": "novo andina;regional;international",
        "email": "quinuamapi@gmail.com",
        "internet_access": "wlan",
        "internet_access:fee": "no",
        "name": "Quinua",
        "opening_hours": "Mo-Su 08:00-23:30",
        "payment:cash": "yes",
        "payment:credit_cards": "yes",
        "payment:debit_cards": "yes",
        "phone": "+51 084 211188",
        "wheelchair": "no"
      },
      "geometry": {
        "type": "Point",
        "coordinates": [
          -72.524564,
          -13.1544898
        ]
      },
      "id": "node/3893674254"
    },
    {
      "type": "Feature",
      "properties": {
        "@id": "node/3893942979",
        "addr:housenumber": "404",
        "addr:street": "Avenida Pachacutec",
        "amenity": "restaurant",
        "cuisine": "regional",
        "internet_access": "yes",
        "internet_access:fee": "no",
        "name": "Jairito",
        "opening_hours": "Mo-Su 09:00-22:00",
        "payment:cash": "yes",
        "payment:credit_cards": "yes",
        "payment:debit_cards": "yes",
        "phone": "+51 984 440646",
        "wheelchair": "no"
      },
      "geometry": {
        "type": "Point",
        "coordinates": [
          -72.524415,
          -13.1545156
        ]
      },
      "id": "node/3893942979"
    },
    {
      "type": "Feature",
      "properties": {
        "@id": "node/3894124247",
        "addr:housenumber": "803",
        "addr:street": "Avenida Hermanos Ayar",
        "amenity": "restaurant",
        "cuisine": "nacional;international;regional;pizza",
        "email": "restaurantollantay@gmail.com",
        "internet_access": "yes",
        "internet_access:fee": "no",
        "name": "Ollantay",
        "opening_hours": "Mo-Su 7:00-22:00",
        "payment:cash": "yes",
        "payment:credit_cards": "yes",
        "payment:debit_cards": "yes",
        "phone": "+51 984 011117 ; +51 084 211167",
        "wheelchair": "limited"
      },
      "geometry": {
        "type": "Point",
        "coordinates": [
          -72.524532,
          -13.1548307
        ]
      },
      "id": "node/3894124247"
    },
    {
      "type": "Feature",
      "properties": {
        "@id": "node/3894277182",
        "addr:housenumber": "601",
        "addr:street": "Avenida Pachacutec",
        "amenity": "restaurant",
        "bar": "yes",
        "internet_access": "yes",
        "internet_access:fee": "no",
        "internet_access:type": "wlan",
        "name": "Mapi Carnes Grill",
        "opening_hours": "Mo-Su 10:00-02:00",
        "payment:cash": "yes",
        "payment:credit_cards": "yes",
        "payment:debit_cards": "yes",
        "phone": "+51 084 211383",
        "website": "http://www.mapicarnesgrill.com",
        "wheelchair": "limited"
      },
      "geometry": {
        "type": "Point",
        "coordinates": [
          -72.5238228,
          -13.1541361
        ]
      },
      "id": "node/3894277182"
    },
    {
      "type": "Feature",
      "properties": {
        "@id": "node/3894338750",
        "addr:city": "Machu Picchu Pueblo",
        "addr:housenumber": "600",
        "addr:street": "Avenida Pachacutec",
        "amenity": "restaurant",
        "cuisine": "international",
        "email": "chez_maggy@hotmail.com",
        "internet_access": "yes",
        "internet_access:fee": "no",
        "internet_access:type": "wlan",
        "name": "Chez Maggy",
        "opening_hours": "Mo-Su 10:00-00:00",
        "payment:cash": "yes",
        "payment:credit_cards": "yes",
        "payment:debit_cards": "yes",
        "phone": "+51 964 361879",
        "website": "http://www.pizzeriaschezmaggy.com",
        "wheelchair": "yes"
      },
      "geometry": {
        "type": "Point",
        "coordinates": [
          -72.5235605,
          -13.1539838
        ]
      },
      "id": "node/3894338750"
    },
    {
      "type": "Feature",
      "properties": {
        "@id": "node/3952800223",
        "addr:city": "Cusco",
        "addr:country": "PE",
        "addr:housenumber": "390",
        "addr:street": "Calle Zetas",
        "amenity": "restaurant",
        "cuisine": "peruvian",
        "name": "Sepia Club Café",
        "opening_hours": "Mo-Sa 11:00-22:00",
        "phone": "+51 84 236310",
        "website": "http://www.sepiaclubcafe.com/"
      },
      "geometry": {
        "type": "Point",
        "coordinates": [
          -71.9745955,
          -13.5197747
        ]
      },
      "id": "node/3952800223"
    },
    {
      "type": "Feature",
      "properties": {
        "@id": "node/3998385340",
        "amenity": "restaurant",
        "name": "Nonna Trattoria"
      },
      "geometry": {
        "type": "Point",
        "coordinates": [
          -71.9755573,
          -13.5181449
        ]
      },
      "id": "node/3998385340"
    },
    {
      "type": "Feature",
      "properties": {
        "@id": "node/4123579990",
        "amenity": "restaurant",
        "name": "Altar Inca"
      },
      "geometry": {
        "type": "Point",
        "coordinates": [
          -71.8629374,
          -13.4260864
        ]
      },
      "id": "node/4123579990"
    },
    {
      "type": "Feature",
      "properties": {
        "@id": "node/4123633190",
        "amenity": "restaurant",
        "cuisine": "argentinian",
        "internet_access": "wlan",
        "name": "Cava Mora"
      },
      "geometry": {
        "type": "Point",
        "coordinates": [
          -71.9789028,
          -13.517438
        ]
      },
      "id": "node/4123633190"
    },
    {
      "type": "Feature",
      "properties": {
        "@id": "node/4127413589",
        "addr:street": "Huaynapata",
        "amenity": "restaurant",
        "cuisine": "pizza",
        "internet_access": "wlan",
        "name": "Kukuly"
      },
      "geometry": {
        "type": "Point",
        "coordinates": [
          -71.9786714,
          -13.5145571
        ]
      },
      "id": "node/4127413589"
    },
    {
      "type": "Feature",
      "properties": {
        "@id": "node/4129048191",
        "addr:street": "Plaza Kusipata",
        "amenity": "restaurant",
        "internet_access": "wlan",
        "name": "Los Portales II"
      },
      "geometry": {
        "type": "Point",
        "coordinates": [
          -71.9799782,
          -13.5174401
        ]
      },
      "id": "node/4129048191"
    },
    {
      "type": "Feature",
      "properties": {
        "@id": "node/4141756091",
        "addr:city": "Cusco",
        "addr:housenumber": "216 - c",
        "addr:street": "Choquechaca",
        "amenity": "restaurant",
        "cuisine": "peruvian",
        "email": "reservanaupa@hotmail.com",
        "internet_access": "wlan",
        "name": "Ñaupa Restaurant",
        "name:en": "Ñaupa Restaurant",
        "name:es": "Ñaupa Restaurante",
        "opening_hours": "Mo-Su 07:00-22:00",
        "phone": "+51 84 315980"
      },
      "geometry": {
        "type": "Point",
        "coordinates": [
          -71.9764346,
          -13.5144678
        ]
      },
      "id": "node/4141756091"
    },
    {
      "type": "Feature",
      "properties": {
        "@id": "node/4143587790",
        "amenity": "restaurant",
        "cuisine": "mexican;peruvian",
        "diet:vegetarian": "yes",
        "name": "BIOFERIA CUSCO",
        "opening_hours": "Su 00:00-24:00",
        "phone": "+51 992210631"
      },
      "geometry": {
        "type": "Point",
        "coordinates": [
          -71.94682,
          -13.5248148
        ]
      },
      "id": "node/4143587790"
    },
    {
      "type": "Feature",
      "properties": {
        "@id": "node/4147980589",
        "addr:street": "Calle Suecia",
        "amenity": "restaurant",
        "cuisine": "spanish",
        "internet_access": "wlan",
        "name": "Tapa y Tapa Ole!"
      },
      "geometry": {
        "type": "Point",
        "coordinates": [
          -71.9793232,
          -13.5152714
        ]
      },
      "id": "node/4147980589"
    },
    {
      "type": "Feature",
      "properties": {
        "@id": "node/4150235322",
        "amenity": "restaurant",
        "name": "El Torito"
      },
      "geometry": {
        "type": "Point",
        "coordinates": [
          -72.1473098,
          -13.4630984
        ]
      },
      "id": "node/4150235322"
    },
    {
      "type": "Feature",
      "properties": {
        "@id": "node/4150235406",
        "amenity": "restaurant",
        "name": "Corralitos"
      },
      "geometry": {
        "type": "Point",
        "coordinates": [
          -72.1474327,
          -13.4630515
        ]
      },
      "id": "node/4150235406"
    },
    {
      "type": "Feature",
      "properties": {
        "@id": "node/4172304093",
        "amenity": "restaurant",
        "name": "Q'anela"
      },
      "geometry": {
        "type": "Point",
        "coordinates": [
          -72.128768,
          -13.2990198
        ]
      },
      "id": "node/4172304093"
    },
    {
      "type": "Feature",
      "properties": {
        "@id": "node/4179747185",
        "amenity": "restaurant",
        "name": "La casa de Xiovana"
      },
      "geometry": {
        "type": "Point",
        "coordinates": [
          -71.3215223,
          -13.666695
        ]
      },
      "id": "node/4179747185"
    },
    {
      "type": "Feature",
      "properties": {
        "@id": "node/4180057372",
        "amenity": "restaurant"
      },
      "geometry": {
        "type": "Point",
        "coordinates": [
          -72.2454746,
          -13.2613095
        ]
      },
      "id": "node/4180057372"
    },
    {
      "type": "Feature",
      "properties": {
        "@id": "node/4181097115",
        "addr:city": "Cusco",
        "addr:housenumber": "555",
        "addr:street": "Calle Recoleta Angosta",
        "amenity": "restaurant",
        "diet:vegetarian": "only",
        "name": "Mama Mia Restaurante Vegetariano"
      },
      "geometry": {
        "type": "Point",
        "coordinates": [
          -71.9740802,
          -13.5167292
        ]
      },
      "id": "node/4181097115"
    },
    {
      "type": "Feature",
      "properties": {
        "@id": "node/4217885490",
        "addr:housenumber": "425",
        "addr:street": "Choquechaca",
        "amenity": "restaurant",
        "contact:facebook": "https://www.facebook.com/Prasada-The-Vegan-Temple-566786760151994/",
        "contact:website": "http://prasada.net/",
        "diet:vegan": "only",
        "internet_access": "wlan",
        "name": "Prasada The Vegan Temple",
        "name:en": "Prasada The Vegan Temple",
        "opening_hours": "12:00-20:30; Fr-Su 12:00-21:30",
        "short_name": "Prasada"
      },
      "geometry": {
        "type": "Point",
        "coordinates": [
          -71.9764209,
          -13.5143783
        ]
      },
      "id": "node/4217885490"
    },
    {
      "type": "Feature",
      "properties": {
        "@id": "node/4220727589",
        "addr:housenumber": "479",
        "addr:street": "Meloc",
        "amenity": "restaurant",
        "contact:facebook": "https://www.facebook.com/pages/El-Tabuco/269632049808440",
        "cuisine": "pizza",
        "internet_access": "wlan",
        "name": "El Tabuco",
        "opening_hours": "Mo-Su 12:00-23:30",
        "phone": "+5184796168"
      },
      "geometry": {
        "type": "Point",
        "coordinates": [
          -71.9835915,
          -13.5159902
        ]
      },
      "id": "node/4220727589"
    },
    {
      "type": "Feature",
      "properties": {
        "@id": "node/4220730489",
        "addr:city": "Cusco",
        "addr:housenumber": "425",
        "addr:street": "Choquechaca",
        "amenity": "restaurant",
        "contact:phone": "+51 946 871435",
        "diet:vegan": "only",
        "internet_access": "wlan",
        "name": "Prasada",
        "name:en": "Prasada - The vegan temple",
        "name:es": "Prasada - The vegan temple",
        "opening_hours": "Mo-Su 12:00-16:30, 17:30-21:00"
      },
      "geometry": {
        "type": "Point",
        "coordinates": [
          -71.9771797,
          -13.5133048
        ]
      },
      "id": "node/4220730489"
    },
    {
      "type": "Feature",
      "properties": {
        "@id": "node/4243709706",
        "addr:housenumber": "500",
        "addr:street": "Recoleta",
        "amenity": "restaurant",
        "name": "Pan Kracio",
        "phone": "+51 985008504"
      },
      "geometry": {
        "type": "Point",
        "coordinates": [
          -71.9746942,
          -13.5167385
        ]
      },
      "id": "node/4243709706"
    },
    {
      "type": "Feature",
      "properties": {
        "@id": "node/4258841960",
        "amenity": "restaurant",
        "cuisine": "peruvian;local",
        "name": "SumaQ"
      },
      "geometry": {
        "type": "Point",
        "coordinates": [
          -71.975674,
          -13.5138946
        ]
      },
      "id": "node/4258841960"
    },
    {
      "type": "Feature",
      "properties": {
        "@id": "node/4263171790",
        "addr:street": "Tandapata",
        "amenity": "restaurant",
        "cuisine": "peruvian",
        "diet:vegan": "yes",
        "name": "Sunset House"
      },
      "geometry": {
        "type": "Point",
        "coordinates": [
          -71.9764154,
          -13.5126963
        ]
      },
      "id": "node/4263171790"
    },
    {
      "type": "Feature",
      "properties": {
        "@id": "node/4263173889",
        "addr:city": "Machupicchu Pueblo",
        "addr:housenumber": "103",
        "addr:street": "Calle Lloque Yupanqui",
        "amenity": "restaurant",
        "cuisine": "fish;regional;italian;french;peruvian",
        "name": "Indio Feliz",
        "phone": "+51 84 211090",
        "website": "https://www.indiofeliz.com/"
      },
      "geometry": {
        "type": "Point",
        "coordinates": [
          -72.5250965,
          -13.1542669
        ]
      },
      "id": "node/4263173889"
    },
    {
      "type": "Feature",
      "properties": {
        "@id": "node/4263173989",
        "addr:street": "Plateros",
        "amenity": "restaurant",
        "cuisine": "barbecue;burger",
        "internet_access": "wlan",
        "name": "Fuego Burgers & Barbecue"
      },
      "geometry": {
        "type": "Point",
        "coordinates": [
          -71.980366,
          -13.51571
        ]
      },
      "id": "node/4263173989"
    },
    {
      "type": "Feature",
      "properties": {
        "@id": "node/4264740789",
        "addr:street": "Plateros",
        "amenity": "restaurant",
        "cuisine": "pasta;italian;pizza",
        "internet_access": "wlan",
        "name": "Carpe Diem"
      },
      "geometry": {
        "type": "Point",
        "coordinates": [
          -71.9802967,
          -13.5160078
        ]
      },
      "id": "node/4264740789"
    },
    {
      "type": "Feature",
      "properties": {
        "@id": "node/4270121809",
        "amenity": "restaurant",
        "cuisine": "italian;pizza",
        "internet_access": "wlan"
      },
      "geometry": {
        "type": "Point",
        "coordinates": [
          -72.5247737,
          -13.154442
        ]
      },
      "id": "node/4270121809"
    },
    {
      "type": "Feature",
      "properties": {
        "@id": "node/4270123391",
        "addr:city": "Cusco",
        "addr:housenumber": "595",
        "addr:street": "Saphi",
        "alt_name": "Mr Soup",
        "amenity": "restaurant",
        "contact:facebook": "https://www.facebook.com/mr.soupcusco/",
        "cuisine": "peruvian;thai;ramen",
        "name": "Mr. Soup",
        "phone": "+51 84 402548"
      },
      "geometry": {
        "type": "Point",
        "coordinates": [
          -71.9808517,
          -13.515202
        ]
      },
      "id": "node/4270123391"
    },
    {
      "type": "Feature",
      "properties": {
        "@id": "node/4280592192",
        "amenity": "restaurant",
        "cuisine": "italian_pizza;italian;pizza",
        "name": "Tunqui"
      },
      "geometry": {
        "type": "Point",
        "coordinates": [
          -71.9835315,
          -13.5161215
        ]
      },
      "id": "node/4280592192"
    },
    {
      "type": "Feature",
      "properties": {
        "@id": "node/4280593893",
        "addr:housenumber": "135",
        "addr:street": "Santa Catalina Angosta",
        "amenity": "restaurant",
        "cuisine": "peruvian",
        "email": "ventas@cuscorestaurants.com",
        "internet_access": "wlan",
        "name": "Incanto",
        "phone": "+51084254753",
        "website": "http://www.cuscorestaurants.com/incanto/"
      },
      "geometry": {
        "type": "Point",
        "coordinates": [
          -71.9774578,
          -13.5169856
        ]
      },
      "id": "node/4280593893"
    },
    {
      "type": "Feature",
      "properties": {
        "@id": "node/4315330389",
        "amenity": "restaurant",
        "bar": "yes",
        "name": "Restaurante Sara Wasi",
        "name:es": "Restaurante Sara Wasi",
        "name:ko": "사랑채",
        "website": "https://www.sarawasihostal.com/"
      },
      "geometry": {
        "type": "Point",
        "coordinates": [
          -71.9796715,
          -13.5153331
        ]
      },
      "id": "node/4315330389"
    },
    {
      "type": "Feature",
      "properties": {
        "@id": "node/4318030789",
        "amenity": "restaurant",
        "name": "La Hacienda"
      },
      "geometry": {
        "type": "Point",
        "coordinates": [
          -72.597439,
          -13.1340262
        ]
      },
      "id": "node/4318030789"
    },
    {
      "type": "Feature",
      "properties": {
        "@id": "node/4325646923",
        "addr:housenumber": "265",
        "addr:street": "Maruri",
        "amenity": "restaurant",
        "cuisine": "chinese;asian",
        "internet_access": "wlan",
        "name": "Chifa Pekin"
      },
      "geometry": {
        "type": "Point",
        "coordinates": [
          -71.9768348,
          -13.5188911
        ]
      },
      "id": "node/4325646923"
    },
    {
      "type": "Feature",
      "properties": {
        "@id": "node/4326986594",
        "amenity": "restaurant",
        "name": "pizzeria piccolo forno"
      },
      "geometry": {
        "type": "Point",
        "coordinates": [
          -72.26347,
          -13.25801
        ]
      },
      "id": "node/4326986594"
    },
    {
      "type": "Feature",
      "properties": {
        "@id": "node/4327064490",
        "amenity": "restaurant",
        "name": "Cuyeria Dona Margarita"
      },
      "geometry": {
        "type": "Point",
        "coordinates": [
          -71.9201133,
          -13.3685367
        ]
      },
      "id": "node/4327064490"
    },
    {
      "type": "Feature",
      "properties": {
        "@id": "node/4331563890",
        "addr:housenumber": "140",
        "addr:street": "Calle Amargura",
        "amenity": "restaurant",
        "cuisine": "peruvian",
        "internet_access": "wlan",
        "name": "Kusikuy",
        "opening_hours": "Mo-Sa 10:00-22:00",
        "phone": "+51 84 262870"
      },
      "geometry": {
        "type": "Point",
        "coordinates": [
          -71.9814856,
          -13.5138678
        ]
      },
      "id": "node/4331563890"
    },
    {
      "type": "Feature",
      "properties": {
        "@id": "node/4335813091",
        "addr:housenumber": "470",
        "addr:street": "Pavitos",
        "amenity": "restaurant",
        "diet:vegetarian": "yes",
        "name": "El Olivo",
        "opening_hours": "Mo-Sa 08:00-21:30; Su 09:00-20:00"
      },
      "geometry": {
        "type": "Point",
        "coordinates": [
          -71.9788967,
          -13.5230269
        ]
      },
      "id": "node/4335813091"
    },
    {
      "type": "Feature",
      "properties": {
        "@id": "node/4347921360",
        "addr:housenumber": "275",
        "addr:street": "San Agustín",
        "amenity": "restaurant",
        "cuisine": "japanese;noodles",
        "name": "Bojosan",
        "name:ja": "うどんや 慕情さん"
      },
      "geometry": {
        "type": "Point",
        "coordinates": [
          -71.9756259,
          -13.5180203
        ]
      },
      "id": "node/4347921360"
    },
    {
      "type": "Feature",
      "properties": {
        "@id": "node/4348845462",
        "amenity": "restaurant",
        "name": "Pa*pri*ka"
      },
      "geometry": {
        "type": "Point",
        "coordinates": [
          -71.9805561,
          -13.5157086
        ]
      },
      "id": "node/4348845462"
    },
    {
      "type": "Feature",
      "properties": {
        "@id": "node/4348845471",
        "amenity": "restaurant",
        "cuisine": "regional",
        "name": "Morena Peruvian Kitchen"
      },
      "geometry": {
        "type": "Point",
        "coordinates": [
          -71.9802071,
          -13.515863
        ]
      },
      "id": "node/4348845471"
    },
    {
      "type": "Feature",
      "properties": {
        "@id": "node/4348845472",
        "amenity": "restaurant",
        "name": "muña amazonia"
      },
      "geometry": {
        "type": "Point",
        "coordinates": [
          -71.9808277,
          -13.516775
        ]
      },
      "id": "node/4348845472"
    },
    {
      "type": "Feature",
      "properties": {
        "@id": "node/4350322178",
        "addr:housenumber": "120",
        "addr:street": "Carmen Alto",
        "amenity": "restaurant",
        "name": "Cuse Smokehouse"
      },
      "geometry": {
        "type": "Point",
        "coordinates": [
          -71.9749063,
          -13.5148033
        ]
      },
      "id": "node/4350322178"
    },
    {
      "type": "Feature",
      "properties": {
        "@id": "node/4353135484",
        "amenity": "restaurant",
        "name": "El Mesón de Espaderos"
      },
      "geometry": {
        "type": "Point",
        "coordinates": [
          -71.9796661,
          -13.5166282
        ]
      },
      "id": "node/4353135484"
    },
    {
      "type": "Feature",
      "properties": {
        "@id": "node/4353295292",
        "amenity": "restaurant",
        "cuisine": "regional",
        "name": "Pakqarina"
      },
      "geometry": {
        "type": "Point",
        "coordinates": [
          -71.9759687,
          -13.5164181
        ]
      },
      "id": "node/4353295292"
    },
    {
      "type": "Feature",
      "properties": {
        "@id": "node/4353295294",
        "amenity": "restaurant",
        "name": "Naturale Pizzas & Food"
      },
      "geometry": {
        "type": "Point",
        "coordinates": [
          -71.9742232,
          -13.5155463
        ]
      },
      "id": "node/4353295294"
    },
    {
      "type": "Feature",
      "properties": {
        "@id": "node/4354152353",
        "addr:city": "Cusco",
        "addr:housenumber": "250",
        "addr:postcode": "08002",
        "addr:street": "San Juan de Dios",
        "amenity": "restaurant",
        "name": "Trattoria del Inka"
      },
      "geometry": {
        "type": "Point",
        "coordinates": [
          -71.9811362,
          -13.5168732
        ]
      },
      "id": "node/4354152353"
    },
    {
      "type": "Feature",
      "properties": {
        "@id": "node/4356781090",
        "amenity": "restaurant",
        "name": "Casona del Inka",
        "website": "https://www.tripadvisor.com/Restaurant_Review-g294314-d5992752-Reviews-or10-La_Casona_Del_Inka-Cusco_Cusco_Region.html"
      },
      "geometry": {
        "type": "Point",
        "coordinates": [
          -71.9659148,
          -13.5147146
        ]
      },
      "id": "node/4356781090"
    },
    {
      "type": "Feature",
      "properties": {
        "@id": "node/4365037033",
        "amenity": "restaurant",
        "name": "La Leña Grill"
      },
      "geometry": {
        "type": "Point",
        "coordinates": [
          -72.5260246,
          -13.1546818
        ]
      },
      "id": "node/4365037033"
    },
    {
      "type": "Feature",
      "properties": {
        "@id": "node/4365037037",
        "amenity": "restaurant",
        "internet_access:type": "wlan",
        "name": "Kcuychi",
        "tourism": "hotel"
      },
      "geometry": {
        "type": "Point",
        "coordinates": [
          -72.5258962,
          -13.1546129
        ]
      },
      "id": "node/4365037037"
    },
    {
      "type": "Feature",
      "properties": {
        "@id": "node/4365037043",
        "addr:housenumber": "507",
        "addr:street": "Avenida Imperio de los Incas",
        "amenity": "restaurant",
        "name": "Tupan A Wasi"
      },
      "geometry": {
        "type": "Point",
        "coordinates": [
          -72.5258697,
          -13.1546457
        ]
      },
      "id": "node/4365037043"
    },
    {
      "type": "Feature",
      "properties": {
        "@id": "node/4365037046",
        "addr:housenumber": "532",
        "addr:street": "Avenida Imperio de los Incas",
        "amenity": "restaurant",
        "name": "Chasky"
      },
      "geometry": {
        "type": "Point",
        "coordinates": [
          -72.5259874,
          -13.1547287
        ]
      },
      "id": "node/4365037046"
    },
    {
      "type": "Feature",
      "properties": {
        "@id": "node/4365465283",
        "amenity": "restaurant",
        "diet:vegetarian": "only",
        "name": "Su Chiung - Restaurante Vegetariano"
      },
      "geometry": {
        "type": "Point",
        "coordinates": [
          -71.906312,
          -13.5340762
        ]
      },
      "id": "node/4365465283"
    },
    {
      "type": "Feature",
      "properties": {
        "@id": "node/4365465299",
        "amenity": "restaurant",
        "name": "La Granja Pollos & Parillas"
      },
      "geometry": {
        "type": "Point",
        "coordinates": [
          -71.9056713,
          -13.5350071
        ]
      },
      "id": "node/4365465299"
    },
    {
      "type": "Feature",
      "properties": {
        "@id": "node/4381038689",
        "amenity": "restaurant",
        "name": "El Olivo",
        "name:es": "El Olivo"
      },
      "geometry": {
        "type": "Point",
        "coordinates": [
          -72.2635215,
          -13.2589539
        ]
      },
      "id": "node/4381038689"
    },
    {
      "type": "Feature",
      "properties": {
        "@id": "node/4381296598",
        "amenity": "restaurant",
        "check_date": "2022-10-20",
        "diet:vegetarian": "yes",
        "name": "Delicias Saludables",
        "name:es": "Delicias Saludables"
      },
      "geometry": {
        "type": "Point",
        "coordinates": [
          -71.97703,
          -13.521151
        ]
      },
      "id": "node/4381296598"
    },
    {
      "type": "Feature",
      "properties": {
        "@id": "node/4391191889",
        "amenity": "restaurant",
        "name": "Rey Kebab en Cusco"
      },
      "geometry": {
        "type": "Point",
        "coordinates": [
          -71.9804262,
          -13.5151063
        ]
      },
      "id": "node/4391191889"
    },
    {
      "type": "Feature",
      "properties": {
        "@id": "node/4395526398",
        "amenity": "restaurant",
        "name": "Blue Magic"
      },
      "geometry": {
        "type": "Point",
        "coordinates": [
          -72.2640934,
          -13.2580775
        ]
      },
      "id": "node/4395526398"
    },
    {
      "type": "Feature",
      "properties": {
        "@id": "node/4425712590",
        "amenity": "restaurant",
        "name": "La Sangucheria",
        "name:es": "La Sangucheria"
      },
      "geometry": {
        "type": "Point",
        "coordinates": [
          -71.9810297,
          -13.518336
        ]
      },
      "id": "node/4425712590"
    },
    {
      "type": "Feature",
      "properties": {
        "@id": "node/4426729501",
        "amenity": "restaurant",
        "cuisine": "peruvian",
        "name": "Cevicheria y marisqueria La Gran Choza",
        "name:es": "Cevicheria y marisqueria La Gran Choza",
        "opening_hours": "Mo-Su 10:00-16:00"
      },
      "geometry": {
        "type": "Point",
        "coordinates": [
          -73.8278371,
          -12.517866
        ]
      },
      "id": "node/4426729501"
    },
    {
      "type": "Feature",
      "properties": {
        "@id": "node/4426893989",
        "amenity": "restaurant",
        "cuisine": "pizza",
        "name": "Pizzaito"
      },
      "geometry": {
        "type": "Point",
        "coordinates": [
          -71.9781961,
          -13.5196739
        ]
      },
      "id": "node/4426893989"
    },
    {
      "type": "Feature",
      "properties": {
        "@id": "node/4426894289",
        "addr:housenumber": "113",
        "addr:street": "Mantas",
        "amenity": "restaurant",
        "cuisine": "italian",
        "name": "Trattoria Adriano"
      },
      "geometry": {
        "type": "Point",
        "coordinates": [
          -71.9789544,
          -13.5178227
        ]
      },
      "id": "node/4426894289"
    },
    {
      "type": "Feature",
      "properties": {
        "@id": "node/4452606989",
        "addr:housenumber": "614",
        "addr:street": "Avenido Imeprio de los Incas",
        "amenity": "restaurant",
        "cuisine": "peruvian",
        "name": "Mapacho",
        "opening_hours": "Mo-Su 10:00-23:00",
        "phone": "+51 984759634",
        "website": "http://www.mapachorestorant.com"
      },
      "geometry": {
        "type": "Point",
        "coordinates": [
          -72.5249573,
          -13.1556624
        ]
      },
      "id": "node/4452606989"
    },
    {
      "type": "Feature",
      "properties": {
        "@id": "node/4457978691",
        "addr:street": "Teqsicocha",
        "amenity": "restaurant",
        "cuisine": "mediterranean;breakfast;grill",
        "internet_access": "wlan",
        "name": "Narguila",
        "name:en": "Nargila",
        "name:he": "נרגילה"
      },
      "geometry": {
        "type": "Point",
        "coordinates": [
          -71.9801826,
          -13.5153385
        ]
      },
      "id": "node/4457978691"
    },
    {
      "type": "Feature",
      "properties": {
        "@id": "node/4467087389",
        "addr:street": "Suytuqhatu",
        "amenity": "restaurant",
        "cuisine": "peruvian"
      },
      "geometry": {
        "type": "Point",
        "coordinates": [
          -71.9737429,
          -13.5145277
        ]
      },
      "id": "node/4467087389"
    },
    {
      "type": "Feature",
      "properties": {
        "@id": "node/4472369093",
        "amenity": "restaurant",
        "ele": "1859.82",
        "name": "San Miguel",
        "name:es": "San Miguel"
      },
      "geometry": {
        "type": "Point",
        "coordinates": [
          -72.5525247,
          -13.1646127
        ]
      },
      "id": "node/4472369093"
    },
    {
      "type": "Feature",
      "properties": {
        "@id": "node/4472624889",
        "amenity": "restaurant",
        "name": "Valery",
        "name:es": "Valery",
        "opening_hours": "Mo-Su 18:00-10:00"
      },
      "geometry": {
        "type": "Point",
        "coordinates": [
          -70.7549135,
          -13.2320099
        ]
      },
      "id": "node/4472624889"
    },
    {
      "type": "Feature",
      "properties": {
        "@id": "node/4479452389",
        "amenity": "restaurant",
        "name:en": "Tinta"
      },
      "geometry": {
        "type": "Point",
        "coordinates": [
          -71.9799314,
          -13.5166452
        ]
      },
      "id": "node/4479452389"
    },
    {
      "type": "Feature",
      "properties": {
        "@id": "node/4480933590",
        "addr:street": "Avenida Ferrocarril",
        "amenity": "restaurant",
        "email": "thestation@outlook.com.pe",
        "internet_access": "wlan",
        "name": "The Station",
        "name:en": "The Station",
        "name:es": "The Station",
        "opening_hours": "Mo-Su 08:30-21:30",
        "phone": "+51 84 436705"
      },
      "geometry": {
        "type": "Point",
        "coordinates": [
          -72.2646453,
          -13.2582817
        ]
      },
      "id": "node/4480933590"
    },
    {
      "type": "Feature",
      "properties": {
        "@id": "node/4483968492",
        "amenity": "restaurant",
        "name": "Pizza Avventura"
      },
      "geometry": {
        "type": "Point",
        "coordinates": [
          -71.9729326,
          -13.5223833
        ]
      },
      "id": "node/4483968492"
    },
    {
      "type": "Feature",
      "properties": {
        "@id": "node/4488098569",
        "amenity": "restaurant",
        "name": "Restaurante Quechua"
      },
      "geometry": {
        "type": "Point",
        "coordinates": [
          -72.0558228,
          -13.110704
        ]
      },
      "id": "node/4488098569"
    },
    {
      "type": "Feature",
      "properties": {
        "@id": "node/4498351292",
        "amenity": "restaurant",
        "name": "cafe bizarre",
        "name:es": "cafe bizarre"
      },
      "geometry": {
        "type": "Point",
        "coordinates": [
          -71.9819911,
          -13.5180301
        ]
      },
      "id": "node/4498351292"
    },
    {
      "type": "Feature",
      "properties": {
        "@id": "node/4501702189",
        "amenity": "restaurant",
        "name": "D'Gustos y Preferencias",
        "name:es": "D'Gustos y Preferencias"
      },
      "geometry": {
        "type": "Point",
        "coordinates": [
          -71.9768843,
          -13.5124643
        ]
      },
      "id": "node/4501702189"
    },
    {
      "type": "Feature",
      "properties": {
        "@id": "node/4503668590",
        "amenity": "restaurant",
        "cuisine": "burger",
        "internet_access": "wlan",
        "name:en": "Papachos",
        "operator": "papachos"
      },
      "geometry": {
        "type": "Point",
        "coordinates": [
          -71.9775545,
          -13.516877
        ]
      },
      "id": "node/4503668590"
    },
    {
      "type": "Feature",
      "properties": {
        "@id": "node/4513927391",
        "addr:housenumber": "278",
        "addr:street": "Marqués",
        "amenity": "restaurant",
        "internet_access": "wlan",
        "name": "Antojitos",
        "name:en": "Antojitos",
        "name:es": "Antojitos"
      },
      "geometry": {
        "type": "Point",
        "coordinates": [
          -71.9806984,
          -13.5187359
        ]
      },
      "id": "node/4513927391"
    },
    {
      "type": "Feature",
      "properties": {
        "@id": "node/4522309291",
        "amenity": "restaurant",
        "cuisine": "steak_house;peruvian",
        "name": "La Hacienda",
        "name:en": "La Hacienda",
        "name:es": "La Hacienda"
      },
      "geometry": {
        "type": "Point",
        "coordinates": [
          -71.7891956,
          -13.5906338
        ]
      },
      "id": "node/4522309291"
    },
    {
      "type": "Feature",
      "properties": {
        "@id": "node/4528980490",
        "amenity": "restaurant",
        "cuisine": "indian",
        "description": "Inexpensive buffet, vegetarian options",
        "diet:vegetarian": "yes",
        "internet_access": "wlan",
        "name": "Maikhana"
      },
      "geometry": {
        "type": "Point",
        "coordinates": [
          -71.9788917,
          -13.5179704
        ]
      },
      "id": "node/4528980490"
    },
    {
      "type": "Feature",
      "properties": {
        "@id": "node/4530763898",
        "addr:street": "Av. Federico Zamalloa",
        "amenity": "restaurant",
        "email": "horno_pumachayoc@hotmail.com",
        "name": "Horno Pumachayoc",
        "name:en": "Horno Restaurant Pumachayoc",
        "name:es": "Horno Pumachayoc",
        "phone": "+51 84 203120"
      },
      "geometry": {
        "type": "Point",
        "coordinates": [
          -71.8480739,
          -13.4205432
        ]
      },
      "id": "node/4530763898"
    },
    {
      "type": "Feature",
      "properties": {
        "@id": "node/4537051093",
        "addr:city": "Cusco",
        "addr:housenumber": "120",
        "addr:street": "Carmen Bajo",
        "alt_name": "Pacha Papa",
        "amenity": "restaurant",
        "cuisine": "peruvian",
        "email": "pachapapa@cuscorestaurants.com",
        "name": "Camaleón Pachapapa",
        "name:en": "Pachapapa",
        "name:es": "Pachapapa",
        "opening_hours": "Mo-Su 11:30-23:00",
        "phone": "+51 84 241318",
        "website": "http://www.cuscorestaurants.com/restaurant/pachapapa/"
      },
      "geometry": {
        "type": "Point",
        "coordinates": [
          -71.9747199,
          -13.5151988
        ]
      },
      "id": "node/4537051093"
    },
    {
      "type": "Feature",
      "properties": {
        "@id": "node/4541043690",
        "amenity": "restaurant",
        "name": "Don Tomás",
        "name:es": "Don Tomás"
      },
      "geometry": {
        "type": "Point",
        "coordinates": [
          -71.9773424,
          -13.5171915
        ]
      },
      "id": "node/4541043690"
    },
    {
      "type": "Feature",
      "properties": {
        "@id": "node/4575926804",
        "amenity": "restaurant",
        "name": "Chefcito",
        "name:es": "Chefcito"
      },
      "geometry": {
        "type": "Point",
        "coordinates": [
          -72.5938286,
          -13.1287536
        ]
      },
      "id": "node/4575926804"
    },
    {
      "type": "Feature",
      "properties": {
        "@id": "node/4621563394",
        "amenity": "restaurant",
        "name:en": "Pueblo Viejo"
      },
      "geometry": {
        "type": "Point",
        "coordinates": [
          -72.5236651,
          -13.1541132
        ]
      },
      "id": "node/4621563394"
    },
    {
      "type": "Feature",
      "properties": {
        "@id": "node/4621709689",
        "addr:city": "Cusco",
        "addr:housenumber": "393",
        "addr:street": "Calle Triunfo",
        "amenity": "restaurant",
        "contact:facebook": "https://www.facebook.com/UchuCusco/",
        "cuisine": "peruvian",
        "name": "Uchu Peruvian Steakhouse",
        "name:en": "Uchu Peruvian Steakhouse"
      },
      "geometry": {
        "type": "Point",
        "coordinates": [
          -71.9766499,
          -13.5161531
        ]
      },
      "id": "node/4621709689"
    },
    {
      "type": "Feature",
      "properties": {
        "@id": "node/4622384190",
        "addr:housenumber": "800",
        "addr:street": "Avenida Centenario",
        "amenity": "restaurant",
        "contact:phone": "+51 84 267012",
        "name": "La Cusqueñita",
        "name:es": "La Cusquenita",
        "phone": "+51974965662"
      },
      "geometry": {
        "type": "Point",
        "coordinates": [
          -71.9755668,
          -13.5244822
        ]
      },
      "id": "node/4622384190"
    },
    {
      "type": "Feature",
      "properties": {
        "@id": "node/4622733789",
        "amenity": "restaurant",
        "internet_access": "wlan",
        "name": "kusi",
        "name:es": "kusi"
      },
      "geometry": {
        "type": "Point",
        "coordinates": [
          -71.9758269,
          -13.515638
        ]
      },
      "id": "node/4622733789"
    },
    {
      "type": "Feature",
      "properties": {
        "@id": "node/4622733889",
        "amenity": "restaurant",
        "name:zh": "只要五块钱一顿的本地餐厅"
      },
      "geometry": {
        "type": "Point",
        "coordinates": [
          -71.9812197,
          -13.520147
        ]
      },
      "id": "node/4622733889"
    },
    {
      "type": "Feature",
      "properties": {
        "@id": "node/4622788793",
        "addr:housenumber": "909",
        "addr:street": "Tandapata",
        "amenity": "restaurant",
        "cuisine": "indian",
        "name": "Korma Sutra",
        "phone": "+51 984132032"
      },
      "geometry": {
        "type": "Point",
        "coordinates": [
          -71.9740568,
          -13.5147126
        ]
      },
      "id": "node/4622788793"
    },
    {
      "type": "Feature",
      "properties": {
        "@id": "node/4622804389",
        "addr:city": "Cusco",
        "addr:housenumber": "217",
        "addr:street": "Carmen Alto",
        "amenity": "restaurant",
        "cuisine": "burger;sandwich;seafood;chicken;pizza;mexican",
        "name": "La Cabra II"
      },
      "geometry": {
        "type": "Point",
        "coordinates": [
          -71.9747388,
          -13.5149592
        ]
      },
      "id": "node/4622804389"
    },
    {
      "type": "Feature",
      "properties": {
        "@id": "node/4629091790",
        "addr:housenumber": "120",
        "addr:street": "Jr Dos de Mayo",
        "amenity": "restaurant",
        "cuisine": "breakfast;local",
        "name": "Don Julio"
      },
      "geometry": {
        "type": "Point",
        "coordinates": [
          -71.4185539,
          -13.9808382
        ]
      },
      "id": "node/4629091790"
    },
    {
      "type": "Feature",
      "properties": {
        "@id": "node/4629580893",
        "amenity": "restaurant",
        "cuisine": "local",
        "name": "Bar Restaurant Occobamba"
      },
      "geometry": {
        "type": "Point",
        "coordinates": [
          -71.4944149,
          -13.9645392
        ]
      },
      "id": "node/4629580893"
    },
    {
      "type": "Feature",
      "properties": {
        "@id": "node/4630711592",
        "addr:street": "Suytuqhatu",
        "amenity": "restaurant",
        "cuisine": "local",
        "name": "Sumaq Chaska"
      },
      "geometry": {
        "type": "Point",
        "coordinates": [
          -71.9740199,
          -13.5146497
        ]
      },
      "id": "node/4630711592"
    },
    {
      "type": "Feature",
      "properties": {
        "@id": "node/4670362990",
        "amenity": "restaurant",
        "name": "Pucara",
        "name:es": "Pucara",
        "name:ja": "プカラ"
      },
      "geometry": {
        "type": "Point",
        "coordinates": [
          -71.9796197,
          -13.516433
        ]
      },
      "id": "node/4670362990"
    },
    {
      "type": "Feature",
      "properties": {
        "@id": "node/4689666389",
        "addr:housenumber": "110b",
        "addr:street": "Tigre",
        "amenity": "restaurant",
        "cuisine": "peruvian",
        "internet_access": "wlan",
        "name": "Sumaq Restaurant & Lodge",
        "name:en": "Sumaq Restaurante & Lodge",
        "opening_hours": "Mo-Su 07:30-22:30"
      },
      "geometry": {
        "type": "Point",
        "coordinates": [
          -71.9805293,
          -13.5151499
        ]
      },
      "id": "node/4689666389"
    },
    {
      "type": "Feature",
      "properties": {
        "@id": "node/4692269089",
        "addr:housenumber": "124b",
        "addr:street": "Choquechaca",
        "amenity": "restaurant",
        "cuisine": "peruvian",
        "internet_access": "wlan",
        "name": "Mistura Cusqueña",
        "name:en": "Mistura Cusqueña",
        "name:es": "Mistura Cusqueña"
      },
      "geometry": {
        "type": "Point",
        "coordinates": [
          -71.9755764,
          -13.516016
        ]
      },
      "id": "node/4692269089"
    },
    {
      "type": "Feature",
      "properties": {
        "@id": "node/4708735389",
        "addr:housenumber": "135",
        "addr:street": "Santa Catalina Angosta",
        "amenity": "restaurant",
        "cuisine": "international;peruvian",
        "description": "Organic global cuisine",
        "diet:vegetarian": "yes",
        "email": "greens@cuscorestaurants.com",
        "internet_access": "wlan",
        "name": "Greens",
        "name:en": "Greens Organic, Cusco, Peru",
        "name:es": "Greens Organic",
        "name:nl": "Greens Organic, Cusco, Peru",
        "opening_hours": "Mo-Su 08:00-22:30",
        "operator": "GreensOrganic",
        "organic": "yes",
        "phone": "+51 84 254753"
      },
      "geometry": {
        "type": "Point",
        "coordinates": [
          -71.9775237,
          -13.5169782
        ]
      },
      "id": "node/4708735389"
    },
    {
      "type": "Feature",
      "properties": {
        "@id": "node/4730882323",
        "addr:housenumber": "620",
        "addr:street": "Avenido Imeprio de los Incas",
        "amenity": "restaurant",
        "name": "Full House"
      },
      "geometry": {
        "type": "Point",
        "coordinates": [
          -72.524558,
          -13.1557327
        ]
      },
      "id": "node/4730882323"
    },